state,ags,name,plz,lon,lat,search
01,01001000,Flensburg,24937,9.438,54.783,flensburg
01,01002000,Kiel,24103,10.137,54.322,kiel
01,01003000,Lübeck,23539,10.684,53.866,lübeck
01,01004000,Neumünster,24534,9.988,54.07,neumünster
01,01051011,Brunsbüttel,25541,9.127,53.897,brunsbüttel
01,01051044,Heide,25746,9.095,54.196,heide
01,01051003,Averlak,25715,9.183,53.941,averlak
01,01051010,Brickeln,25712,9.221,54.008,brickeln
01,01051012,Buchholz,25712,9.224,53.987,buchholz
01,01051016,Burg (Dithmarschen),25712,9.258,53.996,burg (dithmarschen)
01,01051022,Dingen,25715,9.126,53.961,dingen
01,01051024,Eddelak,25715,9.138,53.946,eddelak
01,01051026,Eggstedt,25721,9.259,54.055,eggstedt
01,01051032,Frestedt,25727,9.176,54.024,frestedt
01,01051037,Großenrade,25712,9.223,54.022,großenrade
01,01051051,Hochdonn,25712,9.293,54.02,hochdonn
01,01051064,Kuden,25712,9.193,53.968,kuden
01,01051089,Quickborn,25712,9.207,54.01,quickborn
01,01051097,Sankt Michaelisdonn,25693,9.122,53.994,sankt michaelisdonn
01,01051110,Süderhastedt,25727,9.209,54.05,süderhastedt
01,01051021,Diekhusen-Fahrstedt,25709,9.028,53.942,diekhusen-fahrstedt
01,01051034,Friedrichskoog,25718,8.897,54.014,friedrichskoog
01,01051046,Helse,25709,9.01,53.978,helse
01,01051057,Kaiser-Wilhelm-Koog,25709,8.926,53.943,kaiser-wilhelm-koog
01,01051062,Kronprinzenkoog,25709,8.964,53.972,kronprinzenkoog
01,01051072,Marne,25709,9.009,53.954,marne
01,01051073,Marnerdeich,25709,8.983,53.948,marnerdeich
01,01051076,Neufeld,25724,9.019,53.907,neufeld
01,01051077,Neufelderkoog,25724,8.969,53.907,neufelderkoog
01,01051090,Ramhusen,25715,9.091,53.941,ramhusen
01,01051103,Schmedeswurth,25724,9.04,53.926,schmedeswurth
01,01051118,Trennewurth,25693,9.027,54.0,trennewurth
01,01051119,Volsemenhusen,25693,9.066,53.968,volsemenhusen
01,01051005,Barkenholm,25791,9.174,54.237,barkenholm
01,01051008,Bergewöhrden,25779,9.209,54.318,bergewöhrden
01,01051019,Dellstedt,25786,9.369,54.238,dellstedt
01,01051020,Delve,25788,9.252,54.304,delve
01,01051023,Dörpling,25794,9.302,54.261,dörpling
01,01051030,Fedderingen,25779,9.133,54.281,fedderingen
01,01051035,Gaushorn,25782,9.225,54.195,gaushorn
01,01051036,Glüsing,25779,9.216,54.275,glüsing
01,01051038,Groven,25774,8.989,54.3,groven
01,01051047,Hemme,25774,9.011,54.28,hemme
01,01051049,Hennstedt,25779,9.168,54.284,hennstedt
01,01051052,Hövede,25782,9.293,54.244,hövede
01,01051053,Hollingstedt,25788,9.227,54.291,hollingstedt
01,01051058,Karolinenkoog,25774,8.965,54.292,karolinenkoog
01,01051060,Kleve,25779,9.123,54.296,kleve
01,01051061,Krempel,25774,9.028,54.32,krempel
01,01051065,Lehe,25774,9.025,54.344,lehe
01,01051068,Linden,25791,9.182,54.253,linden
01,01051071,Lunden,25774,9.024,54.331,lunden
01,01051080,Norderheistedt,25779,9.146,54.245,norderheistedt
01,01051088,Pahlen,25794,9.296,54.268,pahlen
01,01051092,Rehm-Flehde-Bargen,25776,9.038,54.292,rehm-flehde-bargen
01,01051096,Sankt Annen,25776,9.08,54.345,sankt annen
01,01051100,Schalkholz,25782,9.257,54.246,schalkholz
01,01051102,Schlichting,25779,9.089,54.31,schlichting
01,01051114,Tellingstedt,25782,9.282,54.22,tellingstedt
01,01051117,Tielenhemme,25794,9.379,54.269,tielenhemme
01,01051120,Wallen,25788,9.27,54.285,wallen
01,01051125,Welmbüttel,25782,9.247,54.197,welmbüttel
01,01051131,Westerborstel,25782,9.261,54.22,westerborstel
01,01051133,Wiemerstedt,25779,9.111,54.269,wiemerstedt
01,01051136,Wrohm,25799,9.38,54.213,wrohm
01,01051139,Süderdorf,25782,9.344,54.207,süderdorf
01,01051141,Süderheistedt,25779,9.148,54.235,süderheistedt
01,01051048,Hemmingstedt,25770,9.073,54.149,hemmingstedt
01,01051067,Lieth,25770,9.061,54.155,lieth
01,01051069,Lohe-Rickelshof,25746,9.066,54.188,lohe-rickelshof
01,01051075,Neuenkirchen,25792,8.988,54.236,neuenkirchen
01,01051081,Norderwöhrden,25746,9.0,54.193,norderwöhrden
01,01051082,Nordhastedt,25785,9.183,54.172,nordhastedt
01,01051087,Ostrohe,25746,9.131,54.214,ostrohe
01,01051107,Stelle-Wittenwurth,25795,9.061,54.263,stelle-wittenwurth
01,01051113,Wöhrden,25797,8.995,54.165,wöhrden
01,01051122,Weddingstedt,25795,9.089,54.239,weddingstedt
01,01051130,Wesseln,25746,9.075,54.208,wesseln
01,01051001,Albersdorf,25767,9.284,54.147,albersdorf
01,01051002,Arkebek,25767,9.25,54.16,arkebek
01,01051004,Bargenstedt,25704,9.144,54.096,bargenstedt
01,01051006,Barlt,25719,9.058,54.012,barlt
01,01051015,Bunsoh,25767,9.32,54.166,bunsoh
01,01051017,Busenwurth,25719,9.041,54.042,busenwurth
01,01051027,Elpersbüttel,25704,9.047,54.073,elpersbüttel
01,01051028,Epenwöhrden,25704,9.053,54.113,epenwöhrden
01,01051039,Gudendorf,25693,9.108,54.025,gudendorf
01,01051054,Immenstedt,25767,9.3,54.181,immenstedt
01,01051063,Krumstedt,25727,9.178,54.069,krumstedt
01,01051074,Meldorf,25704,9.069,54.091,meldorf
01,01051078,Nindorf,25704,9.115,54.087,nindorf
01,01051083,Odderade,25785,9.191,54.139,odderade
01,01051085,Offenbüttel,25767,9.358,54.169,offenbüttel
01,01051086,Osterrade,25767,9.353,54.19,osterrade
01,01051098,Sarzbüttel,25785,9.184,54.119,sarzbüttel
01,01051099,Schafstedt,25725,9.294,54.08,schafstedt
01,01051104,Schrum,25782,9.252,54.187,schrum
01,01051126,Wennbüttel,25767,9.322,54.138,wennbüttel
01,01051134,Windbergen,25729,9.118,54.045,windbergen
01,01051135,Wolmersdorf,25704,9.104,54.077,wolmersdorf
01,01051137,Nordermeldorf,25704,9.014,54.105,nordermeldorf
01,01051138,Tensbüttel-Röst,25767,9.237,54.117,tensbüttel-röst
01,01051013,Büsum,25761,8.861,54.129,büsum
01,01051014,Büsumer Deichhausen,25761,8.89,54.136,büsumer deichhausen
01,01051033,Friedrichsgabekoog,25764,8.941,54.158,friedrichsgabekoog
01,01051043,Hedwigenkoog,25761,8.841,54.178,hedwigenkoog
01,01051045,Hellschen-Heringsand-Unterschaar,25764,8.873,54.195,hellschen-heringsand-unterschaar
01,01051050,Hillgroven,25764,8.875,54.228,hillgroven
01,01051079,Norddeich,25764,8.9,54.218,norddeich
01,01051084,Oesterdeichstrich,25761,8.901,54.159,oesterdeichstrich
01,01051093,Reinsbüttel,25764,8.911,54.179,reinsbüttel
01,01051105,Schülp,25764,8.93,54.242,schülp
01,01051108,Strübbel,25792,8.972,54.26,strübbel
01,01051109,Süderdeich,25764,8.911,54.202,süderdeich
01,01051121,Warwerort,25761,8.922,54.141,warwerort
01,01051127,Wesselburen,25764,8.921,54.212,wesselburen
01,01051128,Wesselburener Deichhausen,25764,8.937,54.175,wesselburener deichhausen
01,01051129,Wesselburenerkoog,25764,8.876,54.239,wesselburenerkoog
01,01051132,Westerdeichstrich,25761,8.864,54.162,westerdeichstrich
01,01051140,Oesterwurth,25764,8.977,54.21,oesterwurth
01,01053032,Geesthacht,21502,10.372,53.433,geesthacht
01,01053083,Lauenburg/Elbe,21481,10.554,53.374,lauenburg/elbe
01,01053090,Mölln,23879,10.691,53.63,mölln
01,01053100,Ratzeburg,23909,10.774,53.699,ratzeburg
01,01053116,Schwarzenbek,21493,10.478,53.503,schwarzenbek
01,01053129,Wentorf bei Hamburg,21465,10.252,53.491,wentorf bei hamburg
01,01053008,Behlendorf,23919,10.668,53.699,behlendorf
01,01053009,Berkenthin,23919,10.638,53.735,berkenthin
01,01053011,Bliestorf,23847,10.603,53.769,bliestorf
01,01053024,Düchelsdorf,23847,10.58,53.737,düchelsdorf
01,01053034,Göldenitz,23919,10.632,53.722,göldenitz
01,01053061,Kastorf,23847,10.57,53.749,kastorf
01,01053067,Klempau,23628,10.66,53.763,klempau
01,01053075,Krummesse,23628,10.642,53.78,krummesse
01,01053094,Niendorf bei Berkenthin,23919,10.626,53.702,niendorf bei berkenthin
01,01053103,Rondeshagen,23919,10.63,53.754,rondeshagen
01,01053120,Sierksrade,23847,10.6,53.737,sierksrade
01,01053002,Alt Mölln,23881,10.658,53.623,alt mölln
01,01053005,Bälau,23881,10.622,53.616,bälau
01,01053013,Borstorf,23881,10.564,53.613,borstorf
01,01053014,Breitenfelde,23881,10.633,53.605,breitenfelde
01,01053037,Grambek,23883,10.681,53.574,grambek
01,01053056,Hornbek,21514,10.649,53.559,hornbek
01,01053084,Lehmrade,23883,10.753,53.595,lehmrade
01,01053095,Niendorf/Stecknitz,23881,10.609,53.587,niendorf/stecknitz
01,01053113,Schretstaken,21493,10.554,53.589,schretstaken
01,01053125,Talkau,21493,10.569,53.577,talkau
01,01053134,Woltersdorf,21516,10.64,53.577,woltersdorf
01,01053010,Besenthal,23899,10.743,53.53,besenthal
01,01053015,Bröthen,21514,10.668,53.48,bröthen
01,01053020,Büchen,21514,10.616,53.481,büchen
01,01053029,Fitzen,21514,10.647,53.494,fitzen
01,01053035,Göttin,21514,10.703,53.534,göttin
01,01053046,Gudow,23899,10.772,53.555,gudow
01,01053048,Güster,21514,10.681,53.54,güster
01,01053064,Klein Pampau,21514,10.587,53.513,klein pampau
01,01053080,Langenlehsten,21514,10.74,53.5,langenlehsten
01,01053092,Müssen,21516,10.562,53.495,müssen
01,01053104,Roseburg,21514,10.625,53.531,roseburg
01,01053115,Schulendorf,21516,10.562,53.473,schulendorf
01,01053119,Siebeneichen,21514,10.619,53.511,siebeneichen
01,01053126,Tramm,21516,10.615,53.563,tramm
01,01053132,Witzeeze,21514,10.61,53.453,witzeeze
01,01053003,Aumühle,21521,10.313,53.528,aumühle
01,01053012,Börnsen,21039,10.286,53.477,börnsen
01,01053023,Dassendorf,21521,10.373,53.489,dassendorf
01,01053028,Escheburg,21039,10.309,53.467,escheburg
01,01053050,Hamwarde,21502,10.421,53.453,hamwarde
01,01053053,Hohenhorn,21526,10.368,53.476,hohenhorn
01,01053072,Kröppelshagen-Fahrendorf,21529,10.315,53.489,kröppelshagen-fahrendorf
01,01053131,Wiershop,21502,10.452,53.443,wiershop
01,01053133,Wohltorf,21521,10.291,53.517,wohltorf
01,01053135,Worth,21502,10.41,53.467,worth
01,01053006,Basedow,21483,10.584,53.416,basedow
01,01053019,Buchhorst,21481,10.568,53.385,buchhorst
01,01053022,Dalldorf,21483,10.611,53.436,dalldorf
01,01053058,Juliusburg,21483,10.506,53.417,juliusburg
01,01053073,Krüzen,21483,10.527,53.402,krüzen
01,01053074,Krukow,21483,10.478,53.419,krukow
01,01053082,Lanze,21483,10.604,53.386,lanze
01,01053087,Lütau,21483,10.545,53.436,lütau
01,01053111,Schnakenbek,21481,10.5,53.385,schnakenbek
01,01053128,Wangelau,21483,10.546,53.454,wangelau
01,01053001,Albsfelde,23909,10.694,53.68,albsfelde
01,01053004,Bäk,23909,10.787,53.716,bäk
01,01053016,Brunsmark,23883,10.75,53.617,brunsmark
01,01053018,Buchholz,23911,10.745,53.731,buchholz
01,01053026,Einhaus,23911,10.726,53.714,einhaus
01,01053030,Fredeburg,23909,10.728,53.674,fredeburg
01,01053033,Giesensdorf,23909,10.714,53.688,giesensdorf
01,01053040,Groß Disnack,23911,10.691,53.742,groß disnack
01,01053041,Groß Grönau,23627,10.75,53.801,groß grönau
01,01053043,Groß Sarau,23627,10.738,53.772,groß sarau
01,01053051,Harmsdorf,23911,10.726,53.7,harmsdorf
01,01053054,Hollenbek,23883,10.819,53.592,hollenbek
01,01053057,Horst,23883,10.771,53.625,horst
01,01053062,Kittlitz,23911,10.919,53.664,kittlitz
01,01053066,Klein Zecher,23883,10.873,53.577,klein zecher
01,01053078,Kulpin,23911,10.696,53.71,kulpin
01,01053088,Mechow,23909,10.802,53.718,mechow
01,01053093,Mustin,23911,10.886,53.685,mustin
01,01053098,Pogeez,23911,10.729,53.751,pogeez
01,01053102,Römnitz,23909,10.769,53.711,römnitz
01,01053107,Salem,23911,10.828,53.656,salem
01,01053110,Schmilau,23911,10.756,53.665,schmilau
01,01053117,Seedorf,23883,10.867,53.619,seedorf
01,01053123,Sterley,23883,10.818,53.62,sterley
01,01053136,Ziethen,23911,10.809,53.694,ziethen
01,01053007,Basthorst,21493,10.471,53.577,basthorst
01,01053017,Brunstorf,21524,10.426,53.492,brunstorf
01,01053021,Dahmker,22946,10.445,53.588,dahmker
01,01053027,Elmenhorst,21493,10.538,53.545,elmenhorst
01,01053031,Fuhlenhagen,21493,10.527,53.573,fuhlenhagen
01,01053036,Grabau,21493,10.52,53.514,grabau
01,01053042,Groß Pampau,21493,10.56,53.522,groß pampau
01,01053045,Grove,21493,10.492,53.528,grove
01,01053047,Gülzow,21483,10.491,53.442,gülzow
01,01053049,Hamfelde,22929,10.449,53.597,hamfelde
01,01053052,Havekost,21493,10.473,53.54,havekost
01,01053059,Kankelau,21514,10.568,53.549,kankelau
01,01053060,Kasseburg,22929,10.415,53.567,kasseburg
01,01053070,Köthel,22929,10.51,53.607,köthel
01,01053071,Kollow,21527,10.459,53.463,kollow
01,01053076,Kuddewörde,22958,10.402,53.587,kuddewörde
01,01053089,Möhnsen,21493,10.469,53.56,möhnsen
01,01053091,Mühlenrade,21493,10.488,53.596,mühlenrade
01,01053106,Sahms,21493,10.533,53.526,sahms
01,01053025,Duvensee,23898,10.568,53.693,duvensee
01,01053038,Grinau,23847,10.55,53.776,grinau
01,01053039,Groß Boden,23847,10.453,53.753,groß boden
01,01053044,Groß Schenkenberg,23860,10.565,53.793,groß schenkenberg
01,01053068,Klinkrade,23898,10.55,53.716,klinkrade
01,01053069,Koberg,23881,10.526,53.64,koberg
01,01053077,Kühsen,23898,10.616,53.683,kühsen
01,01053079,Labenz,23898,10.525,53.708,labenz
01,01053081,Lankau,23881,10.665,53.668,lankau
01,01053085,Linau,22959,10.468,53.644,linau
01,01053086,Lüchow,23898,10.53,53.691,lüchow
01,01053096,Nusse,23896,10.576,53.659,nusse
01,01053097,Panten,23896,10.62,53.665,panten
01,01053099,Poggensee,23896,10.58,53.64,poggensee
01,01053101,Ritzerau,23896,10.568,53.663,ritzerau
01,01053108,Sandesneben,23898,10.497,53.688,sandesneben
01,01053109,Schiphorst,23847,10.462,53.708,schiphorst
01,01053112,Schönberg,22929,10.433,53.677,schönberg
01,01053114,Schürensöhlen,23847,10.472,53.763,schürensöhlen
01,01053118,Siebenbäumen,23847,10.525,53.75,siebenbäumen
01,01053121,Sirksfelde,23898,10.51,53.665,sirksfelde
01,01053122,Steinhorst,23847,10.483,53.72,steinhorst
01,01053124,Stubben,23847,10.431,53.733,stubben
01,01053127,Walksfelde,23896,10.575,53.632,walksfelde
01,01053130,Wentorf (Amt Sandesneben),23898,10.475,53.677,wentorf (amt sandesneben)
01,01054033,Friedrichstadt,25840,9.088,54.373,friedrichstadt
01,01054056,Husum,25813,9.05,54.476,husum
01,01054108,Reußenköge,25821,8.918,54.602,reußenköge
01,01054138,Tönning,25832,8.943,54.32,tönning
01,01054168,Sylt,25980,8.324,54.893,sylt
01,01054035,Kirchspiel Garding,25836,8.792,54.322,kirchspiel garding
01,01054036,Garding,25836,8.778,54.328,garding
01,01054040,Grothusenkoog,25836,8.759,54.303,grothusenkoog
01,01054063,Katharinenheerd,25836,8.828,54.335,katharinenheerd
01,01054072,Kotzenbüll,25832,8.907,54.334,kotzenbüll
01,01054090,Norderfriedrichskoog,25870,8.894,54.4,norderfriedrichskoog
01,01054095,Oldenswort,25870,8.943,54.372,oldenswort
01,01054100,Osterhever,25836,8.766,54.385,osterhever
01,01054104,Poppenbüll,25836,8.761,54.362,poppenbüll
01,01054113,Sankt Peter-Ording,25826,8.64,54.302,sankt peter-ording
01,01054134,Tating,25881,8.709,54.325,tating
01,01054135,Tetenbüll,25882,8.828,54.352,tetenbüll
01,01054140,Tümlauer Koog,25881,8.69,54.348,tümlauer koog
01,01054145,Vollerwiek,25836,8.795,54.291,vollerwiek
01,01054148,Welt,25836,8.794,54.302,welt
01,01054150,Westerhever,25881,8.676,54.382,westerhever
01,01054046,Hörnum (Sylt),25997,8.287,54.757,hörnum (sylt)
01,01054061,Kampen (Sylt),25999,8.342,54.956,kampen (sylt)
01,01054078,List auf Sylt,25992,8.436,55.02,list auf sylt
01,01054149,Wenningstedt-Braderup (Sylt),25996,8.341,54.938,wenningstedt-braderup (sylt)
01,01054003,Ahrenviöl,25885,9.207,54.531,ahrenviöl
01,01054004,Ahrenviölfeld,25885,9.274,54.535,ahrenviölfeld
01,01054011,Behrendorf,25850,9.228,54.562,behrendorf
01,01054013,Bondelum,25850,9.267,54.557,bondelum
01,01054041,Haselund,25855,9.183,54.592,haselund
01,01054057,Immenstedt,25885,9.163,54.541,immenstedt
01,01054079,Löwenstedt,25864,9.175,54.622,löwenstedt
01,01054092,Norstedt,25884,9.129,54.588,norstedt
01,01054101,Oster-Ohrstedt,25885,9.227,54.515,oster-ohrstedt
01,01054118,Schwesing,25813,9.135,54.494,schwesing
01,01054123,Sollwitt,25884,9.228,54.595,sollwitt
01,01054144,Viöl,25884,9.181,54.569,viöl
01,01054152,Wester-Ohrstedt,25885,9.19,54.507,wester-ohrstedt
01,01054039,Gröde,25869,8.717,54.632,gröde
01,01054050,Hallig Hooge,25859,8.544,54.569,hallig hooge
01,01054074,Langeneß,25863,8.613,54.637,langeneß
01,01054103,Pellworm,25849,8.656,54.521,pellworm
01,01054005,Alkersum,25938,8.511,54.708,alkersum
01,01054015,Borgsum,25938,8.46,54.7,borgsum
01,01054025,Dunsum,25938,8.415,54.731,dunsum
01,01054083,Midlum,25938,8.519,54.715,midlum
01,01054085,Nebel,25946,8.354,54.651,nebel
01,01054087,Nieblum,25938,8.489,54.692,nieblum
01,01054089,Norddorf auf Amrum,25946,8.333,54.68,norddorf auf amrum
01,01054094,Oevenum,25938,8.531,54.71,oevenum
01,01054098,Oldsum,25938,8.448,54.732,oldsum
01,01054129,Süderende,25938,8.439,54.726,süderende
01,01054143,Utersum,25938,8.407,54.714,utersum
01,01054158,Witsum,25938,8.441,54.699,witsum
01,01054160,Wittdün auf Amrum,25946,8.393,54.627,wittdün auf amrum
01,01054163,Wrixum,25938,8.548,54.699,wrixum
01,01054164,Wyk auf Föhr,25938,8.567,54.691,wyk auf föhr
01,01054001,Achtrup,25917,9.028,54.789,achtrup
01,01054009,Aventoft,25927,8.822,54.901,aventoft
01,01054016,Bosbüll,25899,8.86,54.823,bosbüll
01,01054017,Braderup,25923,8.89,54.836,braderup
01,01054018,Bramstedtlund,25926,9.087,54.852,bramstedtlund
01,01054022,Dagebüll,25899,8.706,54.73,dagebüll
01,01054027,Ellhöft,25923,8.958,54.889,ellhöft
01,01054034,Friedrich-Wilhelm-Lübke-Koog,25924,8.632,54.862,friedrich-wilhelm-lübke-koog
01,01054048,Holm,25923,8.861,54.831,holm
01,01054055,Humptrup,25923,8.865,54.863,humptrup
01,01054062,Karlum,25926,8.975,54.829,karlum
01,01054065,Klanxbüll,25924,8.68,54.864,klanxbüll
01,01054068,Klixbüll,25899,8.882,54.805,klixbüll
01,01054073,Ladelund,25926,9.025,54.841,ladelund
01,01054076,Leck,25917,8.975,54.772,leck
01,01054077,Lexgaard,25923,8.943,54.832,lexgaard
01,01054086,Neukirchen,25927,8.734,54.869,neukirchen
01,01054088,Niebüll,25899,8.829,54.788,niebüll
01,01054109,Risum-Lindholm,25920,8.861,54.759,risum-lindholm
01,01054110,Rodenäs,25924,8.7,54.888,rodenäs
01,01054124,Sprakebüll,25917,9.077,54.776,sprakebüll
01,01054125,Stadum,25917,9.05,54.736,stadum
01,01054126,Stedesand,25920,8.926,54.738,stedesand
01,01054131,Süderlügum,25923,8.908,54.872,süderlügum
01,01054136,Tinningstedt,25917,8.93,54.811,tinningstedt
01,01054142,Uphusum,25923,8.85,54.842,uphusum
01,01054154,Westre,25926,8.988,54.857,westre
01,01054165,Galmsbüll,25899,8.769,54.767,galmsbüll
01,01054166,Emmelsbüll-Horsbüll,25924,8.685,54.822,emmelsbüll-horsbüll
01,01054167,Enge-Sande,25917,8.97,54.733,enge-sande
01,01054007,Arlewatt,25860,9.083,54.539,arlewatt
01,01054023,Drage,25878,9.162,54.354,drage
01,01054026,Elisabeth-Sophien-Koog,25845,8.88,54.51,elisabeth-sophien-koog
01,01054032,Fresendelf,25876,9.249,54.393,fresendelf
01,01054042,Hattstedt,25856,9.025,54.528,hattstedt
01,01054043,Hattstedtermarsch,25856,8.975,54.549,hattstedtermarsch
01,01054052,Horstedt,25860,9.069,54.526,horstedt
01,01054054,Hude,25876,9.216,54.387,hude
01,01054070,Koldenbüttel,25840,9.068,54.385,koldenbüttel
01,01054084,Mildstedt,25866,9.094,54.463,mildstedt
01,01054091,Nordstrand,25845,8.868,54.487,nordstrand
01,01054096,Oldersbek,25873,9.167,54.446,oldersbek
01,01054097,Olderup,25860,9.112,54.538,olderup
01,01054099,Ostenfeld (Husum),25872,9.231,54.463,ostenfeld (husum)
01,01054105,Ramstedt,25876,9.167,54.4,ramstedt
01,01054106,Rantrum,25873,9.13,54.441,rantrum
01,01054116,Schwabstedt,25876,9.185,54.396,schwabstedt
01,01054119,Seeth,25878,9.163,54.366,seeth
01,01054120,Simonsberg,25813,8.972,54.437,simonsberg
01,01054130,Süderhöft,25876,9.242,54.382,süderhöft
01,01054132,Südermarsch,25813,9.082,54.426,südermarsch
01,01054141,Uelvesbüll,25889,8.935,54.415,uelvesbüll
01,01054156,Winnert,25887,9.201,54.433,winnert
01,01054157,Wisch,25876,9.154,54.409,wisch
01,01054159,Wittbek,25872,9.204,54.473,wittbek
01,01054161,Witzwort,25889,8.984,54.399,witzwort
01,01054162,Wobbenbüll,25856,8.993,54.53,wobbenbüll
01,01054002,Ahrenshöft,25853,9.07,54.564,ahrenshöft
01,01054006,Almdorf,25821,9.016,54.579,almdorf
01,01054010,Bargum,25842,8.963,54.705,bargum
01,01054012,Bohmstedt,25853,9.044,54.581,bohmstedt
01,01054014,Bordelum,25852,8.925,54.636,bordelum
01,01054019,Bredstedt,25821,8.961,54.62,bredstedt
01,01054020,Breklum,25821,8.982,54.605,breklum
01,01054024,Drelsdorf,25853,9.041,54.606,drelsdorf
01,01054037,Goldebek,25862,9.146,54.679,goldebek
01,01054038,Goldelund,25862,9.107,54.678,goldelund
01,01054045,Högel,25858,9.057,54.644,högel
01,01054059,Joldelund,25862,9.14,54.653,joldelund
01,01054071,Kolkerheide,25862,9.131,54.62,kolkerheide
01,01054075,Langenhorn,25842,8.926,54.676,langenhorn
01,01054080,Lütjenholm,25842,9.022,54.684,lütjenholm
01,01054093,Ockholm,25842,8.828,54.665,ockholm
01,01054121,Sönnebüll,25821,8.996,54.631,sönnebüll
01,01054128,Struckum,25821,8.994,54.589,struckum
01,01054146,Vollstedt,25821,9.033,54.624,vollstedt
01,01055001,Ahrensbök,23623,10.573,54.011,ahrensbök
01,01055004,Bad Schwartau,23611,10.696,53.92,bad schwartau
01,01055007,Bosau,23715,10.43,54.104,bosau
01,01055010,Dahme,23743,11.082,54.224,dahme
01,01055012,Eutin,23701,10.615,54.139,eutin
01,01055016,Grömitz,23743,10.961,54.149,grömitz
01,01055018,Grube,23743,11.036,54.232,grube
01,01055021,Heiligenhafen,23774,10.975,54.373,heiligenhafen
01,01055025,Kellenhusen (Ostsee),23743,11.06,54.191,kellenhusen (ostsee)
01,01055028,Malente,23714,10.555,54.171,malente
01,01055032,Neustadt in Holstein,23730,10.816,54.106,neustadt in holstein
01,01055033,Oldenburg in Holstein,23758,10.888,54.293,oldenburg in holstein
01,01055035,Ratekau,23626,10.735,53.948,ratekau
01,01055040,Stockelsdorf,23617,10.65,53.889,stockelsdorf
01,01055041,Süsel,23701,10.718,54.077,süsel
01,01055042,Timmendorfer Strand,23669,10.771,53.996,timmendorfer strand
01,01055044,Scharbeutz,23683,10.75,54.023,scharbeutz
01,01055046,Fehmarn,23769,11.12,54.478,fehmarn
01,01055014,Göhl,23758,10.942,54.285,göhl
01,01055015,Gremersdorf,23758,10.928,54.333,gremersdorf
01,01055017,Großenbrode,23775,11.084,54.37,großenbrode
01,01055022,Heringsdorf,23777,11.004,54.3,heringsdorf
01,01055031,Neukirchen,23779,11.015,54.324,neukirchen
01,01055043,Wangels,23758,10.764,54.272,wangels
01,01055006,Beschendorf,23738,10.873,54.183,beschendorf
01,01055011,Damlos,23738,10.908,54.243,damlos
01,01055020,Harmsdorf,23738,10.829,54.244,harmsdorf
01,01055023,Kabelhorst,23738,10.921,54.216,kabelhorst
01,01055027,Lensahn,23738,10.883,54.218,lensahn
01,01055029,Manhagen,23738,10.914,54.195,manhagen
01,01055036,Riepsdorf,23738,10.97,54.225,riepsdorf
01,01055002,Altenkrempe,23730,10.826,54.133,altenkrempe
01,01055024,Kasseedorf,23717,10.72,54.165,kasseedorf
01,01055037,Schashagen,23730,10.884,54.134,schashagen
01,01055038,Schönwalde am Bungsberg,23744,10.753,54.187,schönwalde am bungsberg
01,01055039,Sierksdorf,23730,10.768,54.066,sierksdorf
01,01056002,Barmstedt,25355,9.769,53.79,barmstedt
01,01056005,Bönningstedt,25474,9.906,53.662,bönningstedt
01,01056015,Elmshorn,25335,9.655,53.755,elmshorn
01,01056018,Halstenbek,25469,9.838,53.634,halstenbek
01,01056021,Hasloh,25474,9.912,53.694,hasloh
01,01056025,Helgoland,27498,7.889,54.182,helgoland
01,01056039,Pinneberg,25421,9.793,53.661,pinneberg
01,01056041,Quickborn,25451,9.898,53.729,quickborn
01,01056043,Rellingen,25462,9.83,53.652,rellingen
01,01056044,Schenefeld,22869,9.822,53.601,schenefeld
01,01056048,Tornesch,25436,9.719,53.698,tornesch
01,01056049,Uetersen,25436,9.662,53.684,uetersen
01,01056050,Wedel,22880,9.705,53.577,wedel
01,01056029,Klein Nordende,25336,9.654,53.72,klein nordende
01,01056030,Klein Offenseth-Sparrieshoop,25365,9.69,53.805,klein offenseth-sparrieshoop
01,01056031,Kölln-Reisiek,25337,9.705,53.759,kölln-reisiek
01,01056033,Seester,25370,9.598,53.718,seester
01,01056042,Raa-Besenbek,25335,9.598,53.748,raa-besenbek
01,01056045,Seestermühe,25371,9.566,53.704,seestermühe
01,01056046,Seeth-Ekholt,25337,9.733,53.737,seeth-ekholt
01,01056019,Haselau,25489,9.624,53.661,haselau
01,01056020,Haseldorf,25489,9.598,53.635,haseldorf
01,01056027,Hetlingen,25491,9.635,53.608,hetlingen
01,01056006,Bokel,25364,9.734,53.864,bokel
01,01056010,Brande-Hörnerkirchen,25364,9.714,53.853,brande-hörnerkirchen
01,01056038,Osterhorn,25364,9.699,53.869,osterhorn
01,01056051,Westerhorn,25364,9.682,53.858,westerhorn
01,01056001,Appen,25482,9.743,53.66,appen
01,01056016,Groß Nordende,25436,9.65,53.702,groß nordende
01,01056023,Heidgraben,25436,9.681,53.709,heidgraben
01,01056024,Heist,25492,9.657,53.655,heist
01,01056028,Holm,25488,9.672,53.622,holm
01,01056036,Moorrege,25436,9.659,53.668,moorrege
01,01056037,Neuendeich,25436,9.6,53.676,neuendeich
01,01056003,Bevern,25355,9.771,53.756,bevern
01,01056004,Bilsen,25485,9.876,53.77,bilsen
01,01056008,Bokholt-Hanredder,25335,9.727,53.782,bokholt-hanredder
01,01056011,Bullenkuhlen,25355,9.752,53.769,bullenkuhlen
01,01056014,Ellerhoop,25373,9.771,53.728,ellerhoop
01,01056017,Groß Offenseth-Aspern,25355,9.732,53.818,groß offenseth-aspern
01,01056022,Heede,25355,9.802,53.783,heede
01,01056026,Hemdingen,25485,9.837,53.755,hemdingen
01,01056034,Langeln,25485,9.854,53.794,langeln
01,01056035,Lutzhorn,25355,9.777,53.826,lutzhorn
01,01056009,Borstel-Hohenraden,25494,9.82,53.69,borstel-hohenraden
01,01056013,Ellerbek,25474,9.869,53.657,ellerbek
01,01056032,Kummerfeld,25495,9.791,53.692,kummerfeld
01,01056040,Prisdorf,25497,9.762,53.678,prisdorf
01,01056047,Tangstedt,25499,9.85,53.679,tangstedt
01,01057001,Ascheberg (Holstein),24326,10.341,54.151,ascheberg (holstein)
01,01057008,Bönebüttel,24620,10.059,54.08,bönebüttel
01,01057009,Bösdorf,24306,10.491,54.142,bösdorf
01,01057057,Plön,24306,10.416,54.158,plön
01,01057062,Preetz,24211,10.281,54.232,preetz
01,01057091,Schwentinental,24223,10.232,54.292,schwentinental
01,01057004,Behrensdorf (Ostsee),24321,10.604,54.347,behrensdorf (ostsee)
01,01057007,Blekendorf,24327,10.651,54.276,blekendorf
01,01057013,Dannau,24329,10.541,54.241,dannau
01,01057021,Giekau,24321,10.506,54.317,giekau
01,01057026,Helmstorf,24321,10.593,54.287,helmstorf
01,01057027,Högsdorf,24327,10.615,54.252,högsdorf
01,01057029,Hohenfelde,24257,10.496,54.371,hohenfelde
01,01057030,Hohwacht (Ostsee),24321,10.674,54.321,hohwacht (ostsee)
01,01057034,Kirchnüchel,23714,10.68,54.204,kirchnüchel
01,01057035,Klamp,24321,10.534,54.296,klamp
01,01057038,Kletkamp,24327,10.638,54.249,kletkamp
01,01057048,Lütjenburg,24321,10.592,54.295,lütjenburg
01,01057055,Panker,24321,10.573,54.33,panker
01,01057076,Schwartbuck,24257,10.478,54.358,schwartbuck
01,01057082,Tröndel,24321,10.514,54.342,tröndel
01,01057015,Dersau,24326,10.336,54.118,dersau
01,01057017,Dörnick,24326,10.36,54.163,dörnick
01,01057022,Grebin,24329,10.494,54.196,grebin
01,01057032,Kalübbe,24326,10.283,54.118,kalübbe
01,01057045,Lebrade,24306,10.422,54.217,lebrade
01,01057053,Nehmten,24326,10.393,54.095,nehmten
01,01057065,Rantzau,24329,10.507,54.254,rantzau
01,01057067,Rathjensdorf,24306,10.428,54.186,rathjensdorf
01,01057089,Wittmoldt,24306,10.349,54.175,wittmoldt
01,01057002,Barmissen,24245,10.175,54.205,barmissen
01,01057010,Boksee,24220,10.128,54.243,boksee
01,01057011,Bothkamp,24250,10.134,54.203,bothkamp
01,01057023,Großbarkau,24245,10.169,54.225,großbarkau
01,01057031,Honigsee,24211,10.187,54.228,honigsee
01,01057033,Kirchbarkau,24245,10.142,54.212,kirchbarkau
01,01057037,Klein Barkau,24245,10.135,54.223,klein barkau
01,01057042,Kühren,24211,10.258,54.198,kühren
01,01057046,Lehmkuhlen,24211,10.361,54.227,lehmkuhlen
01,01057047,Löptin,24250,10.216,54.175,löptin
01,01057054,Nettelsee,24250,10.189,54.174,nettelsee
01,01057058,Pohnsdorf,24211,10.249,54.24,pohnsdorf
01,01057059,Postfeld,24211,10.216,54.211,postfeld
01,01057066,Rastorf,24211,10.289,54.273,rastorf
01,01057070,Schellhorn,24211,10.299,54.228,schellhorn
01,01057084,Wahlstorf,24211,10.295,54.178,wahlstorf
01,01057086,Warnau,24250,10.16,54.188,warnau
01,01057003,Barsbek,24217,10.32,54.404,barsbek
01,01057006,Bendfeld,24217,10.419,54.364,bendfeld
01,01057012,Brodersdorf,24235,10.249,54.385,brodersdorf
01,01057018,Fahren,24253,10.338,54.35,fahren
01,01057020,Fiefbergen,24217,10.343,54.379,fiefbergen
01,01057028,Höhndorf,24217,10.371,54.373,höhndorf
01,01057039,Köhn,24257,10.455,54.344,köhn
01,01057040,Krokau,24217,10.342,54.402,krokau
01,01057041,Krummbek,24217,10.401,54.378,krummbek
01,01057043,Laboe,24235,10.224,54.404,laboe
01,01057049,Lutterbek,24235,10.277,54.392,lutterbek
01,01057056,Passade,24253,10.317,54.367,passade
01,01057060,Prasdorf,24253,10.296,54.379,prasdorf
01,01057063,Probsteierhagen,24253,10.288,54.363,probsteierhagen
01,01057073,Schönberg (Holstein),24217,10.372,54.392,schönberg (holstein)
01,01057078,Stakendorf,24217,10.423,54.388,stakendorf
01,01057079,Stein,24235,10.269,54.415,stein
01,01057081,Stoltenberg,24256,10.347,54.345,stoltenberg
01,01057087,Wendtorf,24235,10.292,54.41,wendtorf
01,01057088,Wisch,24217,10.344,54.411,wisch
01,01057016,Dobersdorf,24232,10.282,54.318,dobersdorf
01,01057044,Lammershagen,24238,10.444,54.275,lammershagen
01,01057050,Martensrade,24238,10.393,54.28,martensrade
01,01057052,Mucheln,24238,10.443,54.246,mucheln
01,01057072,Schlesen,24256,10.329,54.322,schlesen
01,01057077,Selent,24238,10.426,54.29,selent
01,01057090,Fargau-Pratjau,24256,10.396,54.328,fargau-pratjau
01,01057025,Heikendorf,24226,10.207,54.371,heikendorf
01,01057051,Mönkeberg,24226,10.187,54.348,mönkeberg
01,01057074,Schönkirchen,24226,10.224,54.337,schönkirchen
01,01057005,Belau,24601,10.26,54.098,belau
01,01057024,Großharrie,24625,10.05,54.119,großharrie
01,01057068,Rendswühren,24619,10.18,54.074,rendswühren
01,01057069,Ruhwinkel,24601,10.222,54.094,ruhwinkel
01,01057071,Schillsdorf,24637,10.124,54.116,schillsdorf
01,01057080,Stolpe,24601,10.223,54.129,stolpe
01,01057083,Tasdorf,24536,10.031,54.096,tasdorf
01,01057085,Wankendorf,24601,10.208,54.113,wankendorf
01,01058005,Altenholz,24161,10.121,54.403,altenholz
01,01058034,Büdelsdorf,24782,9.678,54.316,büdelsdorf
01,01058043,Eckernförde,24340,9.837,54.473,eckernförde
01,01058092,Kronshagen,24119,10.077,54.332,kronshagen
01,01058135,Rendsburg,24768,9.663,54.306,rendsburg
01,01058169,Wasbek,24647,9.896,54.071,wasbek
01,01058001,Achterwehr,24239,9.966,54.313,achterwehr
01,01058028,Bredenbek,24796,9.871,54.325,bredenbek
01,01058050,Felde,24242,9.935,54.302,felde
01,01058093,Krummwisch,24796,9.898,54.335,krummwisch
01,01058104,Melsdorf,24109,10.03,54.317,melsdorf
01,01058126,Ottendorf,24107,10.045,54.34,ottendorf
01,01058130,Quarnbek,24107,9.984,54.33,quarnbek
01,01058171,Westensee,24259,9.897,54.275,westensee
01,01058037,Dänischenhagen,24229,10.13,54.426,dänischenhagen
01,01058116,Noer,24214,10.005,54.461,noer
01,01058150,Schwedeneck,24229,10.069,54.458,schwedeneck
01,01058157,Strande,24229,10.171,54.441,strande
01,01058051,Felm,24244,10.061,54.41,felm
01,01058058,Gettorf,24214,9.974,54.408,gettorf
01,01058096,Lindau,24214,9.905,54.385,lindau
01,01058110,Neudorf-Bornstein,24214,9.935,54.426,neudorf-bornstein
01,01058112,Neuwittenbek,24214,10.028,54.368,neuwittenbek
01,01058121,Osdorf,24251,10.016,54.428,osdorf
01,01058142,Schinkel,24214,9.955,54.356,schinkel
01,01058165,Tüttendorf,24214,9.993,54.392,tüttendorf
01,01058019,Böhnhusen,24220,10.068,54.221,böhnhusen
01,01058053,Flintbek,24220,10.084,54.253,flintbek
01,01058145,Schönhorst,24220,10.104,54.225,schönhorst
01,01058160,Techelsdorf,24220,10.047,54.214,techelsdorf
01,01058003,Alt Duvenstedt,24791,9.645,54.36,alt duvenstedt
01,01058054,Fockbek,24787,9.601,54.304,fockbek
01,01058118,Nübbel,24809,9.622,54.273,nübbel
01,01058136,Rickert,24782,9.669,54.334,rickert
01,01058010,Bargstall,24806,9.466,54.26,bargstall
01,01058029,Breiholz,24797,9.522,54.206,breiholz
01,01058036,Christiansholm,24799,9.405,54.32,christiansholm
01,01058047,Elsdorf-Westermühlen,24800,9.517,54.261,elsdorf-westermühlen
01,01058055,Friedrichsgraben,24799,9.419,54.272,friedrichsgraben
01,01058056,Friedrichsholm,24799,9.427,54.303,friedrichsholm
01,01058070,Hamdorf,24805,9.519,54.226,hamdorf
01,01058078,Hohn,24806,9.503,54.299,hohn
01,01058089,Königshügel,24799,9.474,54.335,königshügel
01,01058097,Lohe-Föhrden,24806,9.522,54.336,lohe-föhrden
01,01058129,Prinzenmoor,24805,9.454,54.217,prinzenmoor
01,01058154,Sophienhamm,24806,9.461,54.27,sophienhamm
01,01058031,Brinjahe,24816,9.632,54.169,brinjahe
01,01058048,Embühren,24819,9.591,54.171,embühren
01,01058068,Haale,24819,9.549,54.174,haale
01,01058071,Hamweddel,24816,9.619,54.191,hamweddel
01,01058075,Hörsten,24797,9.579,54.227,hörsten
01,01058086,Jevenstedt,24808,9.669,54.235,jevenstedt
01,01058101,Luhnstedt,24816,9.699,54.167,luhnstedt
01,01058148,Schülp b. Rendsburg,24813,9.629,54.259,schülp b. rendsburg
01,01058155,Stafstedt,24816,9.663,54.171,stafstedt
01,01058172,Westerrönfeld,24784,9.646,54.28,westerrönfeld
01,01058018,Blumenthal,24241,10.003,54.226,blumenthal
01,01058105,Mielkendorf,24247,10.041,54.285,mielkendorf
01,01058107,Molfsee,24113,10.065,54.263,molfsee
01,01058138,Rodenbek,24247,10.02,54.277,rodenbek
01,01058139,Rumohr,24254,10.025,54.255,rumohr
01,01058141,Schierensee,24241,9.983,54.257,schierensee
01,01058011,Bargstedt,24793,9.769,54.162,bargstedt
01,01058021,Bokel,24802,9.794,54.216,bokel
01,01058023,Borgdorf-Seedorf,24589,9.89,54.176,borgdorf-seedorf
01,01058027,Brammer,24793,9.765,54.2,brammer
01,01058038,Dätgen,24589,9.934,54.181,dätgen
01,01058045,Eisendorf,24589,9.869,54.193,eisendorf
01,01058046,Ellerdorf,24589,9.838,54.195,ellerdorf
01,01058049,Emkendorf,24802,9.853,54.262,emkendorf
01,01058059,Gnutz,24622,9.824,54.135,gnutz
01,01058065,Groß Vollstedt,24802,9.868,54.235,groß vollstedt
01,01058091,Krogaspe,24644,9.929,54.132,krogaspe
01,01058094,Langwedel,24631,9.932,54.212,langwedel
01,01058117,Nortorf,24589,9.856,54.167,nortorf
01,01058120,Oldenhütten,24793,9.74,54.158,oldenhütten
01,01058147,Schülp b. Nortorf,24589,9.886,54.164,schülp b. nortorf
01,01058163,Timmaspe,24644,9.891,54.141,timmaspe
01,01058168,Warder,24646,9.887,54.214,warder
01,01058026,Bovenau,24796,9.83,54.331,bovenau
01,01058073,Haßmoor,24790,9.821,54.292,haßmoor
01,01058122,Ostenfeld (Rendsburg),24790,9.785,54.315,ostenfeld (rendsburg)
01,01058124,Osterrönfeld,24783,9.697,54.292,osterrönfeld
01,01058132,Rade b. Rendsburg,24790,9.745,54.331,rade b. rendsburg
01,01058140,Schacht-Audorf,24783,9.718,54.314,schacht-audorf
01,01058146,Schülldorf,24790,9.729,54.3,schülldorf
01,01058016,Bissee,24582,10.11,54.191,bissee
01,01058022,Bordesholm,24582,10.026,54.176,bordesholm
01,01058033,Brügge,24582,10.071,54.174,brügge
01,01058063,Grevenkrug,24241,10.01,54.213,grevenkrug
01,01058064,Groß Buchwald,24582,10.086,54.163,groß buchwald
01,01058076,Hoffeld,24582,9.981,54.189,hoffeld
01,01058098,Loop,24644,9.949,54.148,loop
01,01058108,Mühbrook,24582,10.01,54.157,mühbrook
01,01058109,Negenharrie,24625,10.075,54.144,negenharrie
01,01058133,Reesdorf,24241,10.06,54.19,reesdorf
01,01058143,Schmalstede,24241,10.03,54.193,schmalstede
01,01058144,Schönbek,24582,9.976,54.163,schönbek
01,01058153,Sören,24241,9.999,54.203,sören
01,01058170,Wattenbek,24582,10.055,54.171,wattenbek
01,01058008,Ascheffel,24358,9.698,54.431,ascheffel
01,01058024,Borgstedt,24794,9.71,54.333,borgstedt
01,01058030,Brekendorf,24811,9.63,54.421,brekendorf
01,01058035,Bünsdorf,24794,9.743,54.37,bünsdorf
01,01058039,Damendorf,24361,9.735,54.424,damendorf
01,01058066,Groß Wittensee,24361,9.77,54.405,groß wittensee
01,01058069,Haby,24361,9.822,54.395,haby
01,01058080,Holtsee,24363,9.855,54.399,holtsee
01,01058081,Holzbunge,24361,9.705,54.378,holzbunge
01,01058083,Hütten,24358,9.718,54.437,hütten
01,01058088,Klein Wittensee,24361,9.733,54.39,klein wittensee
01,01058111,Neu Duvenstedt,24794,9.698,54.355,neu duvenstedt
01,01058123,Osterby,24367,9.754,54.453,osterby
01,01058127,Owschlag,24848,9.599,54.391,owschlag
01,01058152,Sehestedt,24814,9.818,54.366,sehestedt
01,01058175,Ahlefeld-Bistensee,24358,9.692,54.404,ahlefeld-bistensee
01,01058004,Altenhof,24340,9.875,54.435,altenhof
01,01058012,Barkelsby,24360,9.84,54.502,barkelsby
01,01058032,Brodersby,24398,9.98,54.635,brodersby
01,01058040,Damp,24351,9.984,54.578,damp
01,01058042,Dörphof,24398,9.972,54.614,dörphof
01,01058052,Fleckeby,24357,9.696,54.482,fleckeby
01,01058057,Gammelby,24340,9.793,54.5,gammelby
01,01058067,Güby,24357,9.667,54.486,güby
01,01058082,Holzdorf,24364,9.897,54.554,holzdorf
01,01058084,Hummelfeld,24357,9.718,54.462,hummelfeld
01,01058087,Karby,24398,9.975,54.623,karby
01,01058090,Kosel,24354,9.754,54.505,kosel
01,01058099,Loose,24366,9.889,54.52,loose
01,01058102,Goosefeld,24340,9.815,54.43,goosefeld
01,01058137,Rieseby,24354,9.813,54.542,rieseby
01,01058162,Thumby,24351,9.91,54.586,thumby
01,01058166,Waabs,24369,9.983,54.527,waabs
01,01058173,Windeby,24340,9.797,54.455,windeby
01,01058174,Winnemark,24398,9.922,54.616,winnemark
01,01058007,Arpsdorf,24634,9.859,54.039,arpsdorf
01,01058009,Aukrug,24613,9.792,54.077,aukrug
01,01058013,Beldorf,25557,9.352,54.133,beldorf
01,01058014,Bendorf,25557,9.382,54.087,bendorf
01,01058015,Beringstedt,25575,9.535,54.111,beringstedt
01,01058025,Bornholt,25557,9.335,54.102,bornholt
01,01058044,Ehndorf,24647,9.894,54.053,ehndorf
01,01058061,Gokels,25557,9.469,54.112,gokels
01,01058062,Grauel,24594,9.674,54.07,grauel
01,01058072,Hanerau-Hademarschen,25557,9.413,54.127,hanerau-hademarschen
01,01058074,Heinkenborstel,24594,9.751,54.131,heinkenborstel
01,01058077,Hohenwestedt,24594,9.652,54.091,hohenwestedt
01,01058085,Jahrsdorf,24594,9.632,54.066,jahrsdorf
01,01058100,Lütjenwestedt,25585,9.491,54.141,lütjenwestedt
01,01058103,Meezen,24594,9.71,54.052,meezen
01,01058106,Mörel,24594,9.729,54.114,mörel
01,01058113,Nienborstel,24819,9.613,54.137,nienborstel
01,01058115,Nindorf,24594,9.7,54.132,nindorf
01,01058119,Oldenbüttel,25557,9.452,54.169,oldenbüttel
01,01058125,Osterstedt,25590,9.575,54.112,osterstedt
01,01058128,Padenstedt,24634,9.917,54.049,padenstedt
01,01058131,Rade b. Hohenwestedt,24594,9.721,54.101,rade b. hohenwestedt
01,01058134,Remmels,24594,9.652,54.117,remmels
01,01058151,Seefeld,25557,9.493,54.102,seefeld
01,01058156,Steenfeld,25557,9.38,54.143,steenfeld
01,01058158,Tackesdorf,25585,9.482,54.176,tackesdorf
01,01058159,Tappendorf,24594,9.694,54.104,tappendorf
01,01058161,Thaden,25557,9.422,54.103,thaden
01,01058164,Todenbüttel,24819,9.556,54.13,todenbüttel
01,01058167,Wapelfeld,24594,9.605,54.083,wapelfeld
01,01059045,Kappeln,24376,9.931,54.659,kappeln
01,01059075,Schleswig,24837,9.567,54.515,schleswig
01,01059113,Glücksburg (Ostsee),24960,9.551,54.837,glücksburg (ostsee)
01,01059120,Harrislee,24955,9.383,54.804,harrislee
01,01059183,Handewitt,24983,9.325,54.765,handewitt
01,01059107,Eggebek,24852,9.372,54.62,eggebek
01,01059128,Janneby,24992,9.3,54.626,janneby
01,01059131,Jerrishoe,24963,9.372,54.657,jerrishoe
01,01059132,Jörl,24992,9.278,54.61,jörl
01,01059138,Langstedt,24852,9.385,54.617,langstedt
01,01059162,Sollerup,24852,9.32,54.573,sollerup
01,01059169,Süderhackstedt,24852,9.289,54.592,süderhackstedt
01,01059174,Wanderup,24997,9.331,54.688,wanderup
01,01059012,Borgwedel,24857,9.667,54.5,borgwedel
01,01059018,Busdorf,24866,9.553,54.493,busdorf
01,01059019,Dannewerk,24867,9.498,54.48,dannewerk
01,01059026,Fahrdorf,24857,9.599,54.505,fahrdorf
01,01059032,Geltorf,24884,9.613,54.463,geltorf
01,01059043,Jagel,24878,9.537,54.457,jagel
01,01059056,Lottorf,24878,9.573,54.45,lottorf
01,01059078,Selk,24884,9.584,54.469,selk
01,01059101,Tastrup,24943,9.477,54.765,tastrup
01,01059103,Ausacker,24975,9.575,54.739,ausacker
01,01059116,Großsolt,24991,9.513,54.699,großsolt
01,01059126,Hürup,24975,9.529,54.748,hürup
01,01059127,Husby,24975,9.577,54.765,husby
01,01059141,Maasbüll,24975,9.523,54.778,maasbüll
01,01059182,Freienwill,24991,9.492,54.729,freienwill
01,01059002,Arnis,24399,9.932,54.631,arnis
01,01059034,Grödersby,24376,9.918,54.638,grödersby
01,01059067,Oersberg,24407,9.842,54.675,oersberg
01,01059068,Rabenkirchen-Faulück,24407,9.863,54.645,rabenkirchen-faulück
01,01059106,Dollerup,24989,9.681,54.776,dollerup
01,01059118,Grundhof,24977,9.655,54.773,grundhof
01,01059137,Langballig,24977,9.637,54.799,langballig
01,01059145,Munkbrarup,24960,9.561,54.803,munkbrarup
01,01059157,Ringsberg,24977,9.598,54.807,ringsberg
01,01059176,Wees,24999,9.523,54.807,wees
01,01059178,Westerholz,24977,9.669,54.817,westerholz
01,01059159,Sieverstedt,24885,9.475,54.643,sieverstedt
01,01059171,Tarp,24963,9.403,54.664,tarp
01,01059184,Oeversee,24988,9.433,54.703,oeversee
01,01059076,Schnarup-Thumby,24891,9.65,54.649,schnarup-thumby
01,01059161,Sörup,24966,9.669,54.718,sörup
01,01059185,Mittelangeln,24986,9.594,54.683,mittelangeln
01,01059105,Böxlund,24994,9.181,54.84,böxlund
01,01059115,Großenwiehe,24969,9.253,54.713,großenwiehe
01,01059123,Hörup,24980,9.104,54.741,hörup
01,01059124,Holt,24994,9.147,54.811,holt
01,01059129,Jardelund,24994,9.201,54.825,jardelund
01,01059143,Medelby,24994,9.173,54.813,medelby
01,01059144,Meyn,24980,9.224,54.758,meyn
01,01059149,Nordhackstedt,24980,9.167,54.733,nordhackstedt
01,01059151,Osterby,24994,9.211,54.797,osterby
01,01059158,Schafflund,24980,9.184,54.759,schafflund
01,01059173,Wallsbüll,24980,9.238,54.774,wallsbüll
01,01059177,Weesby,24994,9.153,54.83,weesby
01,01059179,Lindewitt,24969,9.197,54.698,lindewitt
01,01059006,Böel,24401,9.722,54.648,böel
01,01059014,Brebel,24392,9.737,54.635,brebel
01,01059021,Dollrottfeld,24392,9.809,54.642,dollrottfeld
01,01059055,Loit,24888,9.7,54.611,loit
01,01059060,Mohrkirch,24405,9.707,54.678,mohrkirch
01,01059063,Norderbrarup,24392,9.769,54.656,norderbrarup
01,01059065,Nottfeld,24392,9.769,54.619,nottfeld
01,01059070,Rügge,24405,9.761,54.689,rügge
01,01059072,Saustrup,24392,9.772,54.672,saustrup
01,01059074,Scheggerott,24392,9.821,54.668,scheggerott
01,01059080,Steinfeld,24888,9.744,54.598,steinfeld
01,01059083,Süderbrarup,24392,9.775,54.636,süderbrarup
01,01059094,Ulsnis,24897,9.747,54.569,ulsnis
01,01059095,Wagersrott,24392,9.795,54.665,wagersrott
01,01059187,Boren,24392,9.82,54.615,boren
01,01059008,Böklund,24860,9.584,54.603,böklund
01,01059016,Brodersby,24864,9.715,54.538,brodersby
01,01059033,Goltoft,24864,9.722,54.548,goltoft
01,01059037,Havetoft,24873,9.516,54.649,havetoft
01,01059042,Idstedt,24879,9.512,54.582,idstedt
01,01059049,Klappholz,24860,9.539,54.621,klappholz
01,01059062,Neuberend,24879,9.525,54.555,neuberend
01,01059073,Schaalby,24882,9.64,54.549,schaalby
01,01059081,Stolk,24890,9.542,54.599,stolk
01,01059082,Struxdorf,24891,9.639,54.632,struxdorf
01,01059084,Süderfahrenstedt,24890,9.584,54.585,süderfahrenstedt
01,01059086,Taarstedt,24893,9.689,54.567,taarstedt
01,01059090,Tolk,24894,9.639,54.579,tolk
01,01059093,Uelsby,24860,9.597,54.631,uelsby
01,01059097,Twedt,24894,9.676,54.598,twedt
01,01059098,Nübel,24881,9.584,54.564,nübel
01,01059102,Ahneby,24996,9.731,54.701,ahneby
01,01059109,Esgrus,24402,9.782,54.723,esgrus
01,01059112,Gelting,24395,9.897,54.746,gelting
01,01059121,Hasselberg,24376,9.977,54.715,hasselberg
01,01059136,Kronsgaard,24395,9.965,54.732,kronsgaard
01,01059142,Maasholm,24404,9.991,54.684,maasholm
01,01059147,Nieby,24395,9.937,54.772,nieby
01,01059148,Niesgrau,24395,9.813,54.744,niesgrau
01,01059152,Pommerby,24395,9.938,54.757,pommerby
01,01059154,Rabel,24376,9.949,54.69,rabel
01,01059155,Rabenholz,24395,9.902,54.722,rabenholz
01,01059163,Stangheck,24395,9.86,54.713,stangheck
01,01059164,Steinberg,24972,9.782,54.756,steinberg
01,01059167,Sterup,24996,9.739,54.728,sterup
01,01059168,Stoltebüll,24409,9.879,54.701,stoltebüll
01,01059186,Steinbergkirche,24972,9.76,54.754,steinbergkirche
01,01059010,Bollingstedt,24855,9.412,54.593,bollingstedt
01,01059023,Ellingstedt,24870,9.41,54.478,ellingstedt
01,01059039,Hollingstedt,24876,9.337,54.456,hollingstedt
01,01059041,Hüsby,24850,9.485,54.496,hüsby
01,01059044,Jübek,24855,9.394,54.557,jübek
01,01059057,Lürschau,24850,9.496,54.539,lürschau
01,01059077,Schuby,24850,9.48,54.515,schuby
01,01059079,Silberstedt,24887,9.371,54.519,silberstedt
01,01059092,Treia,24896,9.317,54.518,treia
01,01059001,Alt Bennebek,24848,9.431,54.378,alt bennebek
01,01059005,Bergenhusen,24861,9.316,54.376,bergenhusen
01,01059009,Börm,24863,9.378,54.403,börm
01,01059020,Dörpstedt,24869,9.362,54.434,dörpstedt
01,01059024,Erfde,24803,9.317,54.309,erfde
01,01059035,Groß Rheide,24848,9.438,54.441,groß rheide
01,01059050,Klein Bennebek,24848,9.457,54.402,klein bennebek
01,01059051,Klein Rheide,24848,9.476,54.45,klein rheide
01,01059053,Kropp,24848,9.509,54.411,kropp
01,01059058,Meggerdorf,24799,9.398,54.347,meggerdorf
01,01059064,Norderstapel,25868,9.245,54.361,norderstapel
01,01059085,Süderstapel,25879,9.219,54.349,süderstapel
01,01059087,Tetenhusen,24817,9.494,54.349,tetenhusen
01,01059088,Tielen,24803,9.335,54.286,tielen
01,01059096,Wohlde,24899,9.295,54.405,wohlde
01,01060004,Bad Bramstedt,24576,9.882,53.919,bad bramstedt
01,01060005,Bad Segeberg,23795,10.304,53.937,bad segeberg
01,01060019,Ellerau,25479,9.918,53.753,ellerau
01,01060039,Henstedt-Ulzburg,24558,9.992,53.784,henstedt-ulzburg
01,01060044,Kaltenkirchen,24568,9.959,53.838,kaltenkirchen
01,01060063,Norderstedt,22846,9.984,53.696,norderstedt
01,01060092,Wahlstedt,23812,10.214,53.952,wahlstedt
01,01060003,Armstedt,24616,9.847,53.971,armstedt
01,01060009,Bimöhlen,24576,9.954,53.936,bimöhlen
01,01060013,Borstel,24616,9.797,53.97,borstel
01,01060021,Föhrden-Barl,25563,9.787,53.927,föhrden-barl
01,01060023,Fuhlendorf,24649,9.885,53.943,fuhlendorf
01,01060027,Großenaspe,24623,9.967,53.976,großenaspe
01,01060031,Hagen,24576,9.827,53.947,hagen
01,01060033,Hardebek,24616,9.869,53.988,hardebek
01,01060035,Hasenkrug,24616,9.85,53.985,hasenkrug
01,01060037,Heidmoor,24632,9.819,53.864,heidmoor
01,01060040,Hitzhusen,24576,9.852,53.923,hitzhusen
01,01060056,Mönkloh,24576,9.788,53.888,mönkloh
01,01060095,Weddelbrook,24576,9.83,53.904,weddelbrook
01,01060099,Wiemersdorf,24649,9.905,53.958,wiemersdorf
01,01060012,Bornhöved,24619,10.225,54.069,bornhöved
01,01060017,Damsdorf,23824,10.314,54.064,damsdorf
01,01060026,Gönnebek,24610,10.178,54.049,gönnebek
01,01060072,Schmalensee,24638,10.271,54.083,schmalensee
01,01060080,Stocksee,24326,10.343,54.09,stocksee
01,01060086,Tarbek,24619,10.27,54.056,tarbek
01,01060087,Tensfeld,23824,10.321,54.042,tensfeld
01,01060089,Trappenkamp,24610,10.221,54.042,trappenkamp
01,01060043,Itzstedt,23845,10.157,53.806,itzstedt
01,01060046,Kayhude,23863,10.134,53.758,kayhude
01,01060058,Nahe,23866,10.135,53.795,nahe
01,01060065,Oering,23845,10.148,53.825,oering
01,01060076,Seth,23845,10.175,53.85,seth
01,01060085,Sülfeld,23867,10.231,53.799,sülfeld
01,01060002,Alveslohe,25486,9.914,53.787,alveslohe
01,01060034,Hartenholm,24628,10.06,53.9,hartenholm
01,01060036,Hasenmoor,24640,9.981,53.9,hasenmoor
01,01060054,Lentföhrden,24632,9.888,53.873,lentföhrden
01,01060064,Nützen,24568,9.92,53.865,nützen
01,01060073,Schmalfeld,24640,9.984,53.877,schmalfeld
01,01060042,Hüttblek,24641,10.072,53.839,hüttblek
01,01060045,Kattendorf,24568,10.024,53.843,kattendorf
01,01060047,Kisdorf,24629,10.007,53.808,kisdorf
01,01060066,Oersdorf,24568,9.995,53.84,oersdorf
01,01060077,Sievershütten,24641,10.106,53.841,sievershütten
01,01060082,Struvenhütten,24643,10.056,53.866,struvenhütten
01,01060084,Stuvenborn,24641,10.125,53.851,stuvenborn
01,01060094,Wakendorf II,24558,10.08,53.78,wakendorf ii
01,01060100,Winsen,24568,10.015,53.831,winsen
01,01060007,Bark,23826,10.185,53.911,bark
01,01060008,Bebensee,23816,10.299,53.875,bebensee
01,01060022,Fredesdorf,23826,10.203,53.875,fredesdorf
01,01060029,Groß Niendorf,23816,10.245,53.846,groß niendorf
01,01060041,Högersdorf,23795,10.284,53.921,högersdorf
01,01060051,Kükels,23829,10.239,53.895,kükels
01,01060053,Leezen,23816,10.252,53.865,leezen
01,01060057,Mözen,23795,10.258,53.911,mözen
01,01060062,Neversdorf,23816,10.286,53.865,neversdorf
01,01060074,Schwissel,23795,10.294,53.895,schwissel
01,01060088,Todesfelde,23826,10.176,53.892,todesfelde
01,01060101,Wittenborn,23829,10.224,53.926,wittenborn
01,01060011,Boostedt,24598,10.026,54.01,boostedt
01,01060016,Daldorf,24635,10.249,54.017,daldorf
01,01060028,Groß Kummerfeld,24626,10.074,54.052,groß kummerfeld
01,01060038,Heidmühlen,24598,10.084,53.972,heidmühlen
01,01060052,Latendorf,24598,10.064,53.995,latendorf
01,01060068,Rickling,24635,10.165,54.006,rickling
01,01060006,Bahrenhof,23845,10.379,53.879,bahrenhof
01,01060010,Blunk,23813,10.316,54.008,blunk
01,01060015,Bühnsdorf,23845,10.374,53.887,bühnsdorf
01,01060018,Dreggers,23845,10.346,53.885,dreggers
01,01060020,Fahrenkrug,23795,10.257,53.941,fahrenkrug
01,01060024,Geschendorf,23815,10.442,53.922,geschendorf
01,01060025,Glasau,23719,10.517,54.057,glasau
01,01060030,Groß Rönnau,23795,10.312,53.972,groß rönnau
01,01060048,Klein Gladebrügge,23795,10.317,53.914,klein gladebrügge
01,01060049,Klein Rönnau,23795,10.321,53.962,klein rönnau
01,01060050,Krems II,23827,10.356,53.987,krems ii
01,01060059,Negernbötel,23795,10.249,53.983,negernbötel
01,01060060,Nehms,23813,10.352,54.021,nehms
01,01060061,Neuengörs,23818,10.384,53.899,neuengörs
01,01060067,Pronstorf,23820,10.471,53.958,pronstorf
01,01060069,Rohlstorf,23821,10.408,53.972,rohlstorf
01,01060070,Schackendorf,23795,10.271,53.958,schackendorf
01,01060071,Schieren,23795,10.391,53.945,schieren
01,01060075,Seedorf,23823,10.409,54.05,seedorf
01,01060079,Stipsdorf,23795,10.334,53.942,stipsdorf
01,01060081,Strukdorf,23815,10.486,53.92,strukdorf
01,01060090,Travenhorst,23827,10.453,54.019,travenhorst
01,01060091,Traventhal,23795,10.318,53.895,traventhal
01,01060093,Wakendorf I,23845,10.357,53.864,wakendorf i
01,01060096,Weede,23795,10.372,53.922,weede
01,01060097,Wensin,23827,10.413,53.981,wensin
01,01060098,Westerrade,23815,10.46,53.936,westerrade
01,01061029,Glückstadt,25348,9.424,53.788,glückstadt
01,01061046,Itzehoe,25524,9.517,53.925,itzehoe
01,01061113,Wilster,25554,9.375,53.923,wilster
01,01061005,Auufer,25548,9.686,53.925,auufer
01,01061016,Breitenberg,25597,9.635,53.924,breitenberg
01,01061017,Breitenburg,25524,9.572,53.905,breitenburg
01,01061053,Kollmoor,25524,9.599,53.921,kollmoor
01,01061058,Kronsmoor,25597,9.602,53.908,kronsmoor
01,01061061,Lägerdorf,25566,9.57,53.889,lägerdorf
01,01061068,Moordiek,25597,9.651,53.913,moordiek
01,01061072,Münsterdorf,25587,9.541,53.904,münsterdorf
01,01061079,Oelixdorf,25524,9.565,53.927,oelixdorf
01,01061109,Westermoor,25597,9.627,53.914,westermoor
01,01061115,Wittenbergen,25548,9.681,53.934,wittenbergen
01,01061004,Altenmoor,25335,9.577,53.764,altenmoor
01,01061012,Blomesche Wildnis,25348,9.451,53.806,blomesche wildnis
01,01061015,Borsfleth,25376,9.43,53.826,borsfleth
01,01061027,Engelbrechtsche Wildnis,25348,9.447,53.786,engelbrechtsche wildnis
01,01061037,Herzhorn,25379,9.483,53.786,herzhorn
01,01061041,Hohenfelde,25358,9.624,53.845,hohenfelde
01,01061044,Horst (Holstein),25358,9.618,53.811,horst (holstein)
01,01061050,Kiebitzreihe,25368,9.614,53.782,kiebitzreihe
01,01061054,Krempdorf,25376,9.461,53.827,krempdorf
01,01061074,Neuendorf b. Elmshorn,25335,9.563,53.738,neuendorf b. elmshorn
01,01061101,Sommerland,25358,9.538,53.803,sommerland
01,01061118,Kollmar,25377,9.495,53.733,kollmar
01,01061008,Bekdorf,25554,9.423,53.938,bekdorf
01,01061010,Bekmünde,25524,9.446,53.925,bekmünde
01,01061024,Drage,25582,9.519,54.004,drage
01,01061034,Heiligenstedten,25524,9.468,53.93,heiligenstedten
01,01061035,Heiligenstedtenerkamp,25524,9.467,53.899,heiligenstedtenerkamp
01,01061039,Hodorf,25569,9.429,53.904,hodorf
01,01061040,Hohenaspe,25582,9.528,53.989,hohenaspe
01,01061045,Huje,25588,9.436,53.977,huje
01,01061047,Kaaks,25582,9.469,53.99,kaaks
01,01061052,Kleve,25554,9.404,53.966,kleve
01,01061059,Krummendiek,25554,9.416,53.944,krummendiek
01,01061065,Lohbarbek,25551,9.636,53.945,lohbarbek
01,01061067,Mehlbek,25588,9.434,54.005,mehlbek
01,01061070,Moorhusen,25554,9.388,53.96,moorhusen
01,01061082,Oldendorf,25588,9.456,53.954,oldendorf
01,01061083,Ottenbüttel,25591,9.506,53.972,ottenbüttel
01,01061084,Peissen,25551,9.609,54.024,peissen
01,01061098,Schlotfeld,25551,9.583,53.959,schlotfeld
01,01061100,Silzen,25551,9.635,54.029,silzen
01,01061114,Winseldorf,25551,9.605,53.943,winseldorf
01,01061006,Bahrenfleth,25569,9.45,53.868,bahrenfleth
01,01061022,Dägeling,25578,9.531,53.879,dägeling
01,01061026,Elskop,25361,9.494,53.812,elskop
01,01061030,Grevenkop,25361,9.536,53.843,grevenkop
01,01061055,Krempe,25361,9.487,53.838,krempe
01,01061056,Kremperheide,25569,9.479,53.882,kremperheide
01,01061057,Krempermoor,25569,9.48,53.878,krempermoor
01,01061073,Neuenbrook,25578,9.533,53.862,neuenbrook
01,01061092,Rethwisch,25566,9.592,53.867,rethwisch
01,01061104,Süderau,25361,9.513,53.822,süderau
01,01061001,Aasbüttel,25560,9.442,54.067,aasbüttel
01,01061003,Agethorst,25560,9.437,54.019,agethorst
01,01061011,Besdorf,25584,9.36,54.05,besdorf
01,01061013,Bokelrehm,25596,9.386,54.038,bokelrehm
01,01061014,Bokhorst,25560,9.401,54.057,bokhorst
01,01061021,Christinenthal,25593,9.532,54.05,christinenthal
01,01061031,Gribbohm,25596,9.348,54.027,gribbohm
01,01061033,Hadenfeld,25560,9.456,54.033,hadenfeld
01,01061043,Holstenniendorf,25584,9.348,54.042,holstenniendorf
01,01061048,Kaisborstel,25560,9.469,54.017,kaisborstel
01,01061066,Looft,25582,9.523,54.029,looft
01,01061076,Nienbüttel,25596,9.415,54.031,nienbüttel
01,01061078,Nutteln,25594,9.389,53.99,nutteln
01,01061081,Oldenborstel,25560,9.513,54.063,oldenborstel
01,01061085,Pöschendorf,25560,9.49,54.039,pöschendorf
01,01061087,Puls,25560,9.516,54.084,puls
01,01061091,Reher,25593,9.574,54.066,reher
01,01061097,Schenefeld,25560,9.481,54.046,schenefeld
01,01061105,Vaale,25594,9.38,54.0,vaale
01,01061106,Vaalermoor,25594,9.331,53.979,vaalermoor
01,01061107,Wacken,25596,9.379,54.02,wacken
01,01061108,Warringholz,25560,9.463,54.079,warringholz
01,01061002,Aebtissinwisch,25572,9.29,53.971,aebtissinwisch
01,01061007,Beidenfleth,25573,9.41,53.88,beidenfleth
01,01061018,Brokdorf,25576,9.332,53.861,brokdorf
01,01061020,Büttel,25572,9.229,53.9,büttel
01,01061023,Dammfleth,25554,9.373,53.909,dammfleth
01,01061025,Ecklak,25572,9.262,53.953,ecklak
01,01061060,Kudensee,25572,9.213,53.93,kudensee
01,01061062,Landrecht,25554,9.387,53.932,landrecht
01,01061063,Landscheide,25572,9.252,53.922,landscheide
01,01061077,Nortorf,25554,9.291,53.927,nortorf
01,01061095,Sankt Margarethen,25572,9.256,53.889,sankt margarethen
01,01061102,Stördorf,25554,9.428,53.917,stördorf
01,01061110,Wewelsfleth,25599,9.4,53.843,wewelsfleth
01,01061119,Neuendorf-Sachsenbande,25554,9.338,53.96,neuendorf-sachsenbande
01,01061019,Brokstedt,24616,9.821,53.99,brokstedt
01,01061028,Fitzbek,25579,9.769,54.002,fitzbek
01,01061036,Hennstedt,25581,9.719,54.031,hennstedt
01,01061038,Hingstheide,25563,9.754,53.908,hingstheide
01,01061042,Hohenlockstedt,25551,9.618,53.965,hohenlockstedt
01,01061049,Kellinghusen,25548,9.714,53.95,kellinghusen
01,01061064,Lockstedt,25551,9.686,54.004,lockstedt
01,01061071,Mühlenbarbek,25548,9.668,53.959,mühlenbarbek
01,01061080,Oeschebüttel,25548,9.722,53.989,oeschebüttel
01,01061086,Poyenberg,25581,9.692,54.042,poyenberg
01,01061088,Quarnstedt,25563,9.785,53.954,quarnstedt
01,01061089,Rade,25579,9.742,54.001,rade
01,01061093,Rosdorf,25548,9.727,53.977,rosdorf
01,01061096,Sarlhusen,24616,9.793,54.023,sarlhusen
01,01061103,Störkathen,25548,9.757,53.979,störkathen
01,01061111,Wiedenborstel,24613,9.762,54.043,wiedenborstel
01,01061112,Willenscharen,24616,9.808,54.01,willenscharen
01,01061116,Wrist,25563,9.751,53.931,wrist
01,01061117,Wulfsmoor,25563,9.724,53.912,wulfsmoor
01,01062001,Ahrensburg,22926,10.24,53.676,ahrensburg
01,01062004,Bad Oldesloe,23843,10.373,53.81,bad oldesloe
01,01062006,Bargteheide,22941,10.262,53.73,bargteheide
01,01062009,Barsbüttel,22885,10.169,53.569,barsbüttel
01,01062018,Glinde,21509,10.211,53.54,glinde
01,01062023,Großhansdorf,22927,10.285,53.663,großhansdorf
01,01062053,Oststeinbek,22113,10.165,53.542,oststeinbek
01,01062060,Reinbek,21465,10.252,53.51,reinbek
01,01062061,Reinfeld (Holstein),23858,10.489,53.831,reinfeld (holstein)
01,01062076,Tangstedt,22889,10.088,53.733,tangstedt
01,01062090,Ammersbek,22949,10.194,53.69,ammersbek
01,01062019,Grabau,23845,10.275,53.804,grabau
01,01062046,Meddewade,23847,10.441,53.81,meddewade
01,01062050,Neritz,23843,10.291,53.788,neritz
01,01062056,Pölitz,23847,10.382,53.773,pölitz
01,01062062,Rethwisch,23847,10.453,53.773,rethwisch
01,01062065,Rümpel,23843,10.352,53.783,rümpel
01,01062089,Lasbek,23847,10.355,53.742,lasbek
01,01062091,Steinburg,22964,10.406,53.705,steinburg
01,01062092,Travenbrück,23843,10.323,53.839,travenbrück
01,01062005,Bargfeld-Stegen,23863,10.187,53.767,bargfeld-stegen
01,01062014,Delingsdorf,22941,10.252,53.707,delingsdorf
01,01062016,Elmenhorst,23869,10.263,53.765,elmenhorst
01,01062027,Hammoor,22941,10.322,53.714,hammoor
01,01062036,Jersbek,22941,10.222,53.741,jersbek
01,01062051,Nienwohld,23863,10.194,53.787,nienwohld
01,01062078,Todendorf,22965,10.349,53.695,todendorf
01,01062081,Tremsbüttel,22967,10.31,53.743,tremsbüttel
01,01062003,Badendorf,23619,10.583,53.87,badendorf
01,01062008,Barnitz,23858,10.5,53.806,barnitz
01,01062025,Hamberge,23619,10.582,53.838,hamberge
01,01062031,Heidekamp,23858,10.501,53.854,heidekamp
01,01062032,Heilshoop,23619,10.531,53.888,heilshoop
01,01062039,Klein Wesenberg,23860,10.545,53.811,klein wesenberg
01,01062048,Mönkhagen,23619,10.562,53.901,mönkhagen
01,01062059,Rehhorst,23619,10.469,53.877,rehhorst
01,01062083,Westerau,23847,10.489,53.779,westerau
01,01062087,Zarpen,23619,10.518,53.87,zarpen
01,01062093,Feldhorst,23858,10.424,53.853,feldhorst
01,01062094,Wesenberg,23858,10.533,53.833,wesenberg
01,01062011,Braak,22145,10.245,53.61,braak
01,01062035,Hoisdorf,22955,10.31,53.66,hoisdorf
01,01062069,Siek,22962,10.298,53.635,siek
01,01062071,Stapelfeld,22145,10.221,53.607,stapelfeld
01,01062088,Brunsbek,22946,10.275,53.588,brunsbek
01,01062020,Grande,22946,10.387,53.58,grande
01,01062021,Grönwohld,22956,10.408,53.642,grönwohld
01,01062022,Großensee,22946,10.341,53.614,großensee
01,01062026,Hamfelde,22929,10.449,53.605,hamfelde
01,01062033,Hohenfelde,22946,10.474,53.631,hohenfelde
01,01062040,Köthel,22929,10.507,53.609,köthel
01,01062045,Lütjensee,22952,10.365,53.649,lütjensee
01,01062058,Rausdorf,22929,10.331,53.589,rausdorf
01,01062082,Trittau,22946,10.403,53.614,trittau
01,01062086,Witzhave,22969,10.338,53.568,witzhave
02,02000000,Hamburg,20038,9.997,53.551,hamburg
03,03101000,Braunschweig,38100,10.521,52.262,braunschweig
03,03102000,Salzgitter,38226,10.37,52.127,salzgitter
03,03103000,Wolfsburg,38440,10.785,52.422,wolfsburg
03,03151009,Gifhorn,38518,10.545,52.482,gifhorn
03,03151025,Sassenburg,38524,10.616,52.529,sassenburg
03,03151040,Wittingen,29378,10.74,52.729,wittingen
03,03151002,Barwedel,38476,10.777,52.523,barwedel
03,03151004,Bokensdorf,38556,10.716,52.5,bokensdorf
03,03151014,Jembke,38477,10.761,52.498,jembke
03,03151020,Osloß,38557,10.68,52.469,osloß
03,03151030,Tappenbeck,38479,10.743,52.475,tappenbeck
03,03151039,Weyhausen,38554,10.716,52.463,weyhausen
03,03151003,Bergfeld,38467,10.846,52.546,bergfeld
03,03151005,Brome,38465,10.942,52.601,brome
03,03151008,Ehra-Lessien,38468,10.771,52.568,ehra-lessien
03,03151021,Parsau,38470,10.892,52.536,parsau
03,03151024,Rühen,38471,10.885,52.486,rühen
03,03151031,Tiddische,38473,10.804,52.517,tiddische
03,03151032,Tülau,38474,10.877,52.577,tülau
03,03151007,Dedelstorf,29386,10.505,52.701,dedelstorf
03,03151011,Hankensbüttel,29386,10.604,52.731,hankensbüttel
03,03151019,Obernholz,29386,10.609,52.761,obernholz
03,03151028,Sprakensehl,29365,10.494,52.767,sprakensehl
03,03151029,Steinhorst,29367,10.405,52.69,steinhorst
03,03151006,Calberlah,38547,10.623,52.421,calberlah
03,03151013,Isenbüttel,38550,10.578,52.435,isenbüttel
03,03151022,Ribbesbüttel,38551,10.506,52.434,ribbesbüttel
03,03151037,Wasbüttel,38553,10.593,52.413,wasbüttel
03,03151012,Hillerse,38543,10.404,52.413,hillerse
03,03151015,Leiferde,38542,10.436,52.438,leiferde
03,03151017,Meinersen,38536,10.362,52.475,meinersen
03,03151018,Müden (Aller),38539,10.362,52.526,müden (aller)
03,03151001,Adenbüttel,38528,10.451,52.379,adenbüttel
03,03151016,Meine,38527,10.545,52.382,meine
03,03151023,Rötgesbüttel,38531,10.532,52.415,rötgesbüttel
03,03151027,Schwülper,38179,10.451,52.347,schwülper
03,03151034,Vordorf,38533,10.523,52.368,vordorf
03,03151041,Didderse,38530,10.403,52.381,didderse
03,03151010,Groß Oesingen,29393,10.462,52.648,groß oesingen
03,03151026,Schönewörde,29396,10.628,52.633,schönewörde
03,03151033,Ummern,29369,10.432,52.591,ummern
03,03151035,Wagenhoff,38559,10.524,52.552,wagenhoff
03,03151036,Wahrenholz,29399,10.603,52.616,wahrenholz
03,03151038,Wesendorf,29392,10.535,52.593,wesendorf
03,03152001,Adelebsen,37139,9.757,51.58,adelebsen
03,03152004,Bovenden,37120,9.923,51.587,bovenden
03,03152007,Duderstadt,37115,10.257,51.512,duderstadt
03,03152009,Friedland,37133,9.914,51.42,friedland
03,03152011,Gleichen,37130,10.055,51.47,gleichen
03,03152012,Göttingen,37083,9.935,51.533,göttingen
03,03152016,Hann. Münden,34346,9.655,51.416,hann. münden
03,03152021,Rosdorf,37124,9.896,51.506,rosdorf
03,03152026,Staufenberg,34355,9.621,51.354,staufenberg
03,03152005,Bühren,37127,9.678,51.485,bühren
03,03152006,Dransfeld,37127,9.763,51.502,dransfeld
03,03152013,Jühnde,37127,9.801,51.464,jühnde
03,03152017,Niemetal,37127,9.714,51.516,niemetal
03,03152023,Scheden,37127,9.734,51.455,scheden
03,03152002,Bilshausen,37434,10.159,51.63,bilshausen
03,03152003,Bodensee,37434,10.132,51.604,bodensee
03,03152010,Gieboldehausen,37434,10.215,51.611,gieboldehausen
03,03152014,Krebeck,37434,10.123,51.588,krebeck
03,03152018,Obernfeld,37434,10.233,51.556,obernfeld
03,03152019,Rhumspringe,37434,10.296,51.582,rhumspringe
03,03152020,Rollshausen,37434,10.217,51.57,rollshausen
03,03152022,Rüdershausen,37434,10.268,51.581,rüdershausen
03,03152028,Wollbrandshausen,37434,10.162,51.587,wollbrandshausen
03,03152029,Wollershausen,37434,10.257,51.596,wollershausen
03,03152008,Ebergötzen,37136,10.102,51.571,ebergötzen
03,03152015,Landolfshausen,37136,10.104,51.54,landolfshausen
03,03152024,Seeburg,37136,10.149,51.565,seeburg
03,03152025,Seulingen,37136,10.161,51.544,seulingen
03,03152027,Waake,37136,10.056,51.555,waake
03,03153002,Bad Harzburg,38667,10.56,51.88,bad harzburg
03,03153007,Langelsheim,38685,10.336,51.938,langelsheim
03,03153008,Liebenburg,38704,10.432,52.02,liebenburg
03,03153012,Seesen,38723,10.176,51.891,seesen
03,03153016,Braunlage,38700,10.611,51.728,braunlage
03,03153017,Goslar,38640,10.429,51.906,goslar
03,03153018,Clausthal-Zellerfeld,38678,10.333,51.804,clausthal-zellerfeld
03,03153006,Hahausen,38729,10.218,51.948,hahausen
03,03153009,Lutter am Barenberge,38729,10.259,51.984,lutter am barenberge
03,03153014,Wallmoden,38729,10.293,52.019,wallmoden
03,03154003,Büddenstedt,38372,11.027,52.163,büddenstedt
03,03154010,Helmstedt,38350,11.01,52.228,helmstedt
03,03154013,Königslutter am Elm,38154,10.817,52.252,königslutter am elm
03,03154014,Lehre,38165,10.671,52.331,lehre
03,03154019,Schöningen,38364,10.968,52.142,schöningen
03,03154008,Grasleben,38368,11.014,52.306,grasleben
03,03154015,Mariental,38368,10.982,52.277,mariental
03,03154016,Querenhorst,38368,10.962,52.337,querenhorst
03,03154018,Rennau,38368,10.911,52.296,rennau
03,03154002,Beierstedt,38382,10.859,52.074,beierstedt
03,03154006,Gevensleben,38384,10.822,52.077,gevensleben
03,03154011,Ingeleben,38385,10.873,52.108,ingeleben
03,03154012,Jerxheim,38381,10.899,52.083,jerxheim
03,03154020,Söllingen,38387,10.925,52.092,söllingen
03,03154023,Twieflingen,38388,10.918,52.125,twieflingen
03,03154005,Frellstedt,38373,10.914,52.206,frellstedt
03,03154017,Räbke,38375,10.878,52.195,räbke
03,03154021,Süpplingen,38373,10.905,52.227,süpplingen
03,03154022,Süpplingenburg,38376,10.908,52.251,süpplingenburg
03,03154025,Warberg,38378,10.92,52.182,warberg
03,03154026,Wolsdorf,38379,10.942,52.191,wolsdorf
03,03154001,Bahrdorf,38459,11.004,52.388,bahrdorf
03,03154004,Danndorf,38461,10.912,52.425,danndorf
03,03154007,Grafhorst,38462,10.945,52.445,grafhorst
03,03154009,Groß Twülpstedt,38464,10.92,52.373,groß twülpstedt
03,03154024,Velpke,38458,10.934,52.408,velpke
03,03155001,Bad Gandersheim,37581,10.024,51.871,bad gandersheim
03,03155002,Bodenfelde,37194,9.553,51.64,bodenfelde
03,03155003,Dassel,37586,9.687,51.802,dassel
03,03155005,Hardegsen,37181,9.83,51.651,hardegsen
03,03155006,Kalefeld,37589,10.034,51.796,kalefeld
03,03155007,Katlenburg-Lindau,37191,10.108,51.668,katlenburg-lindau
03,03155009,Moringen,37186,9.871,51.697,moringen
03,03155010,Nörten-Hardenberg,37176,9.935,51.625,nörten-hardenberg
03,03155011,Northeim,37154,10.0,51.706,northeim
03,03155012,Uslar,37170,9.635,51.661,uslar
03,03155013,Einbeck,37574,9.866,51.817,einbeck
03,03156002,Bad Lauterberg im Harz,37431,10.465,51.627,bad lauterberg im harz
03,03156003,Bad Sachsa,37441,10.552,51.594,bad sachsa
03,03156009,Herzberg am Harz,37412,10.34,51.657,herzberg am harz
03,03156011,Osterode am Harz,37520,10.248,51.728,osterode am harz
03,03156017,Bad Grund (Harz),37539,10.237,51.81,bad grund (harz)
03,03156006,Elbingerode,37412,10.276,51.659,elbingerode
03,03156008,Hattorf am Harz,37197,10.236,51.651,hattorf am harz
03,03156010,Hörden am Harz,37412,10.287,51.669,hörden am harz
03,03156015,Wulften am Harz,37199,10.177,51.663,wulften am harz
03,03156012,Walkenried,37445,10.615,51.584,walkenried
03,03156013,Wieda,37447,10.586,51.633,wieda
03,03156016,Zorge,37449,10.634,51.637,zorge
03,03157001,Edemissen,31234,10.264,52.387,edemissen
03,03157002,Hohenhameln,31249,10.063,52.258,hohenhameln
03,03157005,Lengede,38268,10.306,52.205,lengede
03,03157006,Peine,31224,10.227,52.322,peine
03,03157007,Vechelde,38159,10.373,52.261,vechelde
03,03157008,Wendeburg,38176,10.386,52.326,wendeburg
03,03157009,Ilsede,31241,10.221,52.264,ilsede
03,03158006,Cremlingen,38162,10.655,52.248,cremlingen
03,03158037,Wolfenbüttel,38300,10.54,52.165,wolfenbüttel
03,03158039,Schladen-Werla,38315,10.561,52.037,schladen-werla
03,03158002,Baddeckenstedt,38271,10.232,52.084,baddeckenstedt
03,03158004,Burgdorf,38272,10.219,52.146,burgdorf
03,03158011,Elbe,38274,10.266,52.097,elbe
03,03158016,Haverlah,38275,10.329,52.052,haverlah
03,03158018,Heere,38277,10.234,52.062,heere
03,03158028,Sehlde,38279,10.262,52.039,sehlde
03,03158005,Cramme,38312,10.446,52.113,cramme
03,03158010,Dorstadt,38312,10.562,52.095,dorstadt
03,03158014,Flöthe,38312,10.476,52.075,flöthe
03,03158019,Heiningen,38312,10.554,52.071,heiningen
03,03158023,Ohrum,38312,10.564,52.119,ohrum
03,03158038,Börßum,38312,10.582,52.069,börßum
03,03158009,Dettum,38173,10.67,52.173,dettum
03,03158012,Erkerode,38173,10.708,52.203,erkerode
03,03158013,Evessen,38173,10.711,52.188,evessen
03,03158030,Sickte,38173,10.639,52.205,sickte
03,03158033,Veltheim (Ohe),38173,10.683,52.218,veltheim (ohe)
03,03158007,Dahlum,38170,10.861,52.145,dahlum
03,03158008,Denkte,38170,10.609,52.137,denkte
03,03158017,Hedeper,38170,10.68,52.066,hedeper
03,03158021,Kissenbrück,38170,10.595,52.108,kissenbrück
03,03158022,Kneitlingen,38170,10.761,52.175,kneitlingen
03,03158024,Remlingen,38170,10.674,52.113,remlingen
03,03158025,Roklum,38170,10.74,52.065,roklum
03,03158027,Schöppenstedt,38170,10.775,52.145,schöppenstedt
03,03158029,Semmenstedt,38170,10.696,52.094,semmenstedt
03,03158031,Uehrde,38170,10.766,52.1,uehrde
03,03158032,Vahlberg,38170,10.714,52.131,vahlberg
03,03158035,Winnigstedt,38170,10.765,52.065,winnigstedt
03,03158036,Wittmar,38170,10.641,52.131,wittmar
03,03241001,Hannover,30159,9.738,52.375,hannover
03,03241002,Barsinghausen,30890,9.465,52.302,barsinghausen
03,03241003,Burgdorf,31303,10.008,52.447,burgdorf
03,03241004,Burgwedel,30938,9.875,52.52,burgwedel
03,03241005,Garbsen,30827,9.587,52.416,garbsen
03,03241006,Gehrden,30989,9.599,52.315,gehrden
03,03241007,Hemmingen,30966,9.748,52.321,hemmingen
03,03241008,Isernhagen,30916,9.845,52.455,isernhagen
03,03241009,Laatzen,30880,9.788,52.315,laatzen
03,03241010,Langenhagen,30853,9.734,52.438,langenhagen
03,03241011,Lehrte,31275,9.977,52.373,lehrte
03,03241012,Neustadt am Rübenberge,31535,9.458,52.505,neustadt am rübenberge
03,03241013,Pattensen,30982,9.761,52.264,pattensen
03,03241014,Ronnenberg,30952,9.653,52.319,ronnenberg
03,03241015,Seelze,30926,9.589,52.397,seelze
03,03241016,Sehnde,31319,9.967,52.31,sehnde
03,03241017,Springe,31832,9.555,52.209,springe
03,03241018,Uetze,31311,10.203,52.464,uetze
03,03241019,Wedemark,30900,9.712,52.543,wedemark
03,03241020,Wennigsen (Deister),30974,9.574,52.274,wennigsen (deister)
03,03241021,Wunstorf,31515,9.424,52.425,wunstorf
03,03251007,Bassum,27211,8.726,52.848,bassum
03,03251012,Diepholz,49356,8.371,52.606,diepholz
03,03251037,Stuhr,28816,8.75,53.028,stuhr
03,03251040,Sulingen,27232,8.801,52.682,sulingen
03,03251041,Syke,28857,8.816,52.915,syke
03,03251042,Twistringen,27239,8.639,52.8,twistringen
03,03251044,Wagenfeld,49419,8.59,52.546,wagenfeld
03,03251047,Weyhe,28844,8.841,52.991,weyhe
03,03251009,Brockum,49448,8.419,52.467,brockum
03,03251020,Hüde,49448,8.357,52.495,hüde
03,03251022,Lembruch,49459,8.366,52.527,lembruch
03,03251023,Lemförde,49448,8.377,52.468,lemförde
03,03251025,Marl,49448,8.365,52.484,marl
03,03251029,Quernheim,49448,8.392,52.462,quernheim
03,03251036,Stemshorn,49448,8.363,52.452,stemshorn
03,03251005,Barnstorf,49406,8.505,52.71,barnstorf
03,03251013,Drebber,49457,8.425,52.66,drebber
03,03251014,Drentwede,49406,8.573,52.743,drentwede
03,03251017,Eydelstedt,49406,8.548,52.692,eydelstedt
03,03251002,Asendorf,27330,9.006,52.769,asendorf
03,03251026,Martfeld,27327,9.068,52.876,martfeld
03,03251033,Schwarme,27327,9.018,52.899,schwarme
03,03251039,Süstedt,27305,8.922,52.861,süstedt
03,03251048,Bruchhausen-Vilsen,27305,9.0,52.825,bruchhausen-vilsen
03,03251003,Bahrenborstel,27245,8.815,52.572,bahrenborstel
03,03251004,Barenburg,27245,8.799,52.621,barenburg
03,03251018,Freistatt,27259,8.649,52.623,freistatt
03,03251021,Kirchdorf,27245,8.836,52.595,kirchdorf
03,03251043,Varrel,27259,8.731,52.621,varrel
03,03251045,Wehrbleck,27259,8.692,52.629,wehrbleck
03,03251006,Barver,49453,8.594,52.621,barver
03,03251011,Dickel,49453,8.473,52.645,dickel
03,03251019,Hemsloh,49453,8.509,52.602,hemsloh
03,03251030,Rehden,49453,8.483,52.61,rehden
03,03251046,Wetschen,49453,8.446,52.613,wetschen
03,03251001,Affinghausen,27257,8.88,52.783,affinghausen
03,03251015,Ehrenburg,27248,8.705,52.748,ehrenburg
03,03251028,Neuenkirchen,27251,8.748,52.775,neuenkirchen
03,03251031,Scholen,27251,8.769,52.74,scholen
03,03251032,Schwaförden,27252,8.819,52.738,schwaförden
03,03251038,Sudwalde,27257,8.843,52.797,sudwalde
03,03251008,Borstel,27246,8.972,52.669,borstel
03,03251024,Maasen,27249,8.886,52.692,maasen
03,03251027,Mellinghausen,27249,8.897,52.707,mellinghausen
03,03251034,Siedenburg,27254,8.941,52.693,siedenburg
03,03251035,Staffhorst,27254,8.98,52.722,staffhorst
03,03252001,Aerzen,31855,9.262,52.047,aerzen
03,03252002,Bad Münder am Deister,31848,9.464,52.198,bad münder am deister
03,03252003,Bad Pyrmont,31812,9.263,51.986,bad pyrmont
03,03252004,Coppenbrügge,31863,9.55,52.118,coppenbrügge
03,03252005,Emmerthal,31860,9.379,52.033,emmerthal
03,03252006,Hameln,31785,9.356,52.104,hameln
03,03252007,Hessisch Oldendorf,31840,9.253,52.168,hessisch oldendorf
03,03252008,Salzhemmendorf,31020,9.59,52.066,salzhemmendorf
03,03254002,Alfeld (Leine),31061,9.823,51.986,alfeld (leine)
03,03254003,Algermissen,31191,9.971,52.254,algermissen
03,03254005,Bad Salzdetfurth,31162,10.008,52.063,bad salzdetfurth
03,03254008,Bockenem,31167,10.129,52.01,bockenem
03,03254011,Diekholzen,31199,9.918,52.095,diekholzen
03,03254014,Elze,31008,9.736,52.122,elze
03,03254017,Giesen,31180,9.892,52.195,giesen
03,03254020,Harsum,31177,9.964,52.21,harsum
03,03254021,Hildesheim,31134,9.949,52.155,hildesheim
03,03254022,Holle,31188,10.16,52.087,holle
03,03254026,Nordstemmen,31171,9.783,52.16,nordstemmen
03,03254028,Sarstedt,31157,9.856,52.234,sarstedt
03,03254029,Schellerten,31174,10.102,52.188,schellerten
03,03254032,Söhlde,31185,10.232,52.189,söhlde
03,03254015,Everode,31085,9.914,51.95,everode
03,03254016,Freden (Leine),31084,9.893,51.928,freden (leine)
03,03254024,Landwehr,31087,9.961,51.917,landwehr
03,03254034,Winzenburg,31088,9.939,51.936,winzenburg
03,03254006,Banteln,31029,9.752,52.07,banteln
03,03254007,Betheln,31032,9.793,52.111,betheln
03,03254009,Brüggen,31033,9.777,52.041,brüggen
03,03254010,Despetal,31035,9.842,52.087,despetal
03,03254013,Eime,31036,9.724,52.077,eime
03,03254018,Gronau (Leine),31028,9.786,52.087,gronau (leine)
03,03254027,Rheden,31039,9.788,52.059,rheden
03,03254019,Harbarnsen,31097,9.959,51.991,harbarnsen
03,03254023,Lamspringe,31195,10.009,51.958,lamspringe
03,03254025,Neuhof,31195,10.033,51.981,neuhof
03,03254030,Sehlem,31196,9.975,52.012,sehlem
03,03254035,Woltershausen,31099,9.96,51.974,woltershausen
03,03254001,Adenstedt,31079,9.935,51.998,adenstedt
03,03254004,Almstedt,31079,9.958,52.033,almstedt
03,03254012,Eberholzen,31079,9.85,52.054,eberholzen
03,03254031,Sibbesse,31079,9.903,52.055,sibbesse
03,03254033,Westfeld,31079,9.911,52.042,westfeld
03,03254036,Coppengrave,31091,9.724,51.989,coppengrave
03,03254037,Duingen,31089,9.699,52.006,duingen
03,03254038,Hoyershausen,31093,9.754,52.018,hoyershausen
03,03254039,Marienhagen,31094,9.686,52.034,marienhagen
03,03254040,Weenzen,31096,9.67,52.018,weenzen
03,03255008,Delligsen,31073,9.799,51.943,delligsen
03,03255023,Holzminden,37603,9.45,51.831,holzminden
03,03255002,Bevern,37639,9.494,51.857,bevern
03,03255015,Golmbach,37640,9.545,51.9,golmbach
03,03255021,Holenberg,37642,9.585,51.91,holenberg
03,03255030,Negenborn,37643,9.567,51.891,negenborn
03,03255004,Boffzen,37691,9.399,51.75,boffzen
03,03255009,Derental,37691,9.43,51.695,derental
03,03255014,Fürstenberg,37699,9.399,51.731,fürstenberg
03,03255026,Lauenförde,37697,9.387,51.661,lauenförde
03,03255003,Bodenwerder,37619,9.512,51.976,bodenwerder
03,03255005,Brevörde,37647,9.427,51.912,brevörde
03,03255016,Halle,37620,9.563,51.991,halle
03,03255017,Hehlen,37619,9.47,51.985,hehlen
03,03255019,Heinsen,37649,9.434,51.884,heinsen
03,03255020,Heyen,37619,9.505,52.008,heyen
03,03255025,Kirchbrak,37619,9.573,51.966,kirchbrak
03,03255031,Ottenstein,31868,9.409,51.946,ottenstein
03,03255032,Pegestorf,37619,9.498,51.927,pegestorf
03,03255033,Polle,37647,9.407,51.899,polle
03,03255035,Vahlbruch,37647,9.341,51.921,vahlbruch
03,03255001,Arholzen,37627,9.569,51.867,arholzen
03,03255007,Deensen,37627,9.59,51.863,deensen
03,03255010,Dielmissen,37633,9.607,51.971,dielmissen
03,03255012,Eimen,37632,9.778,51.876,eimen
03,03255013,Eschershausen,37632,9.634,51.93,eschershausen
03,03255018,Heinade,37627,9.633,51.839,heinade
03,03255022,Holzen,37632,9.666,51.934,holzen
03,03255027,Lenne,37627,9.683,51.895,lenne
03,03255028,Lüerdissen,37635,9.626,51.951,lüerdissen
03,03255034,Stadtoldendorf,37627,9.623,51.882,stadtoldendorf
03,03255036,Wangelnstedt,37627,9.688,51.871,wangelnstedt
03,03256022,Nienburg (Weser),31582,9.212,52.641,nienburg (weser)
03,03256025,Rehburg-Loccum,31547,9.204,52.464,rehburg-loccum
03,03256030,Steyerberg,31595,9.026,52.567,steyerberg
03,03256005,Drakenburg,31623,9.211,52.687,drakenburg
03,03256011,Haßbergen,31626,9.23,52.731,haßbergen
03,03256012,Heemsen,31622,9.263,52.704,heemsen
03,03256027,Rohrsen,31627,9.232,52.71,rohrsen
03,03256002,Binnen,31619,9.135,52.618,binnen
03,03256019,Liebenau,31618,9.096,52.604,liebenau
03,03256023,Pennigsehl,31621,9.027,52.642,pennigsehl
03,03256001,Balge,31609,9.185,52.718,balge
03,03256021,Marklohe,31608,9.157,52.669,marklohe
03,03256036,Wietzen,31613,9.084,52.713,wietzen
03,03256020,Linsburg,31636,9.304,52.594,linsburg
03,03256026,Rodewald,31637,9.483,52.663,rodewald
03,03256029,Steimbke,31634,9.39,52.655,steimbke
03,03256031,Stöckse,31638,9.342,52.641,stöckse
03,03256004,Diepenau,31603,8.733,52.422,diepenau
03,03256024,Raddestorf,31604,8.962,52.455,raddestorf
03,03256033,Uchte,31600,8.907,52.499,uchte
03,03256034,Warmsen,31606,8.849,52.456,warmsen
03,03256003,Bücken,27333,9.135,52.78,bücken
03,03256007,Eystrup,27324,9.213,52.779,eystrup
03,03256008,Gandesbergen,27324,9.223,52.761,gandesbergen
03,03256009,Hämelhausen,27324,9.278,52.781,hämelhausen
03,03256010,Hassel (Weser),27324,9.206,52.802,hassel (weser)
03,03256013,Hilgermissen,27318,9.149,52.845,hilgermissen
03,03256014,Hoya,27318,9.136,52.806,hoya
03,03256015,Hoyerhagen,27318,9.086,52.829,hoyerhagen
03,03256028,Schweringen,27324,9.181,52.748,schweringen
03,03256035,Warpe,27333,9.105,52.741,warpe
03,03256006,Estorf,31629,9.142,52.588,estorf
03,03256016,Husum,31632,9.252,52.565,husum
03,03256017,Landesbergen,31628,9.12,52.558,landesbergen
03,03256018,Leese,31633,9.116,52.506,leese
03,03256032,Stolzenau,31592,9.067,52.517,stolzenau
03,03257003,Auetal,31749,9.239,52.24,auetal
03,03257009,Bückeburg,31675,9.05,52.26,bückeburg
03,03257028,Obernkirchen,31683,9.131,52.271,obernkirchen
03,03257031,Rinteln,31737,9.08,52.187,rinteln
03,03257035,Stadthagen,31655,9.206,52.324,stadthagen
03,03257001,Ahnsen,31708,9.101,52.255,ahnsen
03,03257005,Bad Eilsen,31707,9.106,52.24,bad eilsen
03,03257008,Buchholz,31710,9.119,52.225,buchholz
03,03257012,Heeßen,31707,9.106,52.232,heeßen
03,03257022,Luhden,31711,9.092,52.226,luhden
03,03257007,Beckedorf,31699,9.314,52.343,beckedorf
03,03257015,Heuerßen,31700,9.277,52.33,heuerßen
03,03257020,Lindhorst,31698,9.284,52.358,lindhorst
03,03257021,Lüdersfeld,31702,9.253,52.359,lüdersfeld
03,03257006,Bad Nenndorf,31542,9.375,52.339,bad nenndorf
03,03257011,Haste,31559,9.393,52.381,haste
03,03257016,Hohnhorst,31559,9.371,52.369,hohnhorst
03,03257036,Suthfeld,31555,9.397,52.366,suthfeld
03,03257019,Lauenhagen,31714,9.208,52.356,lauenhagen
03,03257023,Meerbeck,31715,9.145,52.342,meerbeck
03,03257025,Niedernwöhren,31712,9.148,52.352,niedernwöhren
03,03257027,Nordsehl,31717,9.182,52.358,nordsehl
03,03257030,Pollhagen,31718,9.189,52.384,pollhagen
03,03257037,Wiedensahl,31719,9.12,52.383,wiedensahl
03,03257013,Helpsen,31691,9.116,52.312,helpsen
03,03257014,Hespe,31693,9.113,52.332,hespe
03,03257026,Nienstädt,31688,9.166,52.293,nienstädt
03,03257034,Seggebruch,31691,9.095,52.302,seggebruch
03,03257002,Apelern,31552,9.336,52.29,apelern
03,03257017,Hülsede,31867,9.361,52.25,hülsede
03,03257018,Lauenau,31867,9.368,52.274,lauenau
03,03257024,Messenkamp,31867,9.38,52.26,messenkamp
03,03257029,Pohle,31867,9.342,52.265,pohle
03,03257032,Rodenberg,31552,9.352,52.312,rodenberg
03,03257004,Auhagen,31553,9.295,52.398,auhagen
03,03257010,Hagenburg,31558,9.327,52.434,hagenburg
03,03257033,Sachsenhagen,31553,9.265,52.396,sachsenhagen
03,03257038,Wölpinghausen,31556,9.238,52.419,wölpinghausen
03,03351004,Bergen,29303,9.962,52.81,bergen
03,03351006,Celle,29221,10.081,52.626,celle
03,03351010,Faßberg,29328,10.162,52.896,faßberg
03,03351012,Hambühren,29313,9.983,52.636,hambühren
03,03351023,Wietze,29323,9.838,52.654,wietze
03,03351024,Winsen (Aller),29308,9.909,52.679,winsen (aller)
03,03351025,Eschede,29348,10.235,52.734,eschede
03,03351026,Südheide,29320,8.841,53.625,südheide
03,03351005,Bröckel,29356,10.216,52.518,bröckel
03,03351007,Eicklingen,29358,10.18,52.551,eicklingen
03,03351017,Langlingen,29364,10.289,52.555,langlingen
03,03351022,Wienhausen,29342,10.186,52.58,wienhausen
03,03351002,Ahnsbeck,29353,10.285,52.611,ahnsbeck
03,03351003,Beedenbostel,29355,10.257,52.644,beedenbostel
03,03351008,Eldingen,29351,10.34,52.686,eldingen
03,03351015,Hohne,29362,10.372,52.589,hohne
03,03351016,Lachendorf,29331,10.245,52.622,lachendorf
03,03351001,Adelheidsdorf,29352,10.06,52.565,adelheidsdorf
03,03351018,Nienhagen,29336,10.104,52.556,nienhagen
03,03351021,Wathlingen,29339,10.157,52.539,wathlingen
03,03351501,Lohheide,29303,9.933,52.809,lohheide
03,03352011,Cuxhaven,27472,8.697,53.864,cuxhaven
03,03352032,Loxstedt,27612,8.649,53.47,loxstedt
03,03352050,Schiffdorf,27619,8.653,53.531,schiffdorf
03,03352059,Beverstedt,27616,8.819,53.434,beverstedt
03,03352060,Hagen im Bremischen,27628,8.644,53.356,hagen im bremischen
03,03352061,Wurster Nordseeküste,27637,8.868,53.689,wurster nordseeküste
03,03352062,Geestland,27607,8.594,53.608,geestland
03,03352004,Belum,21785,8.994,53.816,belum
03,03352008,Bülkau,21782,8.979,53.747,bülkau
03,03352009,Cadenberge,21781,9.057,53.772,cadenberge
03,03352018,Geversdorf,21784,9.079,53.796,geversdorf
03,03352039,Neuhaus (Oste),21785,9.037,53.802,neuhaus (oste)
03,03352042,Oberndorf,21787,9.145,53.752,oberndorf
03,03352056,Wingst,21789,9.039,53.722,wingst
03,03352002,Armstorf,21769,9.074,53.598,armstorf
03,03352024,Hollnseth,21769,9.097,53.579,hollnseth
03,03352029,Lamstedt,21769,9.096,53.636,lamstedt
03,03352036,Mittelstenahe,21770,9.038,53.651,mittelstenahe
03,03352052,Stinstedt,21772,8.973,53.66,stinstedt
03,03352020,Hechthausen,21755,9.238,53.641,hechthausen
03,03352022,Hemmoor,21745,9.135,53.69,hemmoor
03,03352044,Osten,21756,9.188,53.694,osten
03,03352025,Ihlienworth,21775,8.916,53.741,ihlienworth
03,03352038,Neuenkirchen,21763,8.894,53.777,neuenkirchen
03,03352041,Nordleda,21765,8.834,53.764,nordleda
03,03352043,Odisheim,21775,8.941,53.694,odisheim
03,03352045,Osterbruch,21762,8.942,53.778,osterbruch
03,03352046,Otterndorf,21762,8.9,53.808,otterndorf
03,03352051,Steinau,21775,8.877,53.678,steinau
03,03352055,Wanna,21776,8.799,53.741,wanna
03,03353005,Buchholz in der Nordheide,21244,9.881,53.329,buchholz in der nordheide
03,03353026,Neu Wulmstorf,21629,9.796,53.463,neu wulmstorf
03,03353029,Rosengarten,21224,9.881,53.398,rosengarten
03,03353031,Seevetal,21218,10.035,53.378,seevetal
03,03353032,Stelle,21435,10.11,53.38,stelle
03,03353040,Winsen (Luhe),21423,10.209,53.362,winsen (luhe)
03,03353007,Drage,21423,10.261,53.41,drage
03,03353023,Marschacht,21436,10.375,53.406,marschacht
03,03353033,Tespe,21395,10.411,53.402,tespe
03,03353002,Asendorf,21271,9.979,53.29,asendorf
03,03353004,Brackel,21438,10.041,53.297,brackel
03,03353009,Egestorf,21272,10.063,53.195,egestorf
03,03353016,Hanstedt,21271,10.014,53.258,hanstedt
03,03353024,Marxen,21439,10.009,53.311,marxen
03,03353036,Undeloh,21274,9.976,53.197,undeloh
03,03353001,Appel,21279,9.745,53.391,appel
03,03353008,Drestedt,21279,9.774,53.328,drestedt
03,03353014,Halvesbostel,21646,9.601,53.359,halvesbostel
03,03353019,Hollenstedt,21279,9.715,53.367,hollenstedt
03,03353025,Moisburg,21647,9.702,53.405,moisburg
03,03353028,Regesbostel,21649,9.645,53.379,regesbostel
03,03353039,Wenzendorf,21279,9.773,53.348,wenzendorf
03,03353003,Bendestorf,21227,9.966,53.34,bendestorf
03,03353017,Harmstorf,21228,9.987,53.348,harmstorf
03,03353020,Jesteburg,21266,9.953,53.306,jesteburg
03,03353010,Eyendorf,21376,10.154,53.202,eyendorf
03,03353011,Garlstorf,21376,10.103,53.237,garlstorf
03,03353012,Garstedt,21441,10.16,53.286,garstedt
03,03353013,Gödenstorf,21376,10.123,53.229,gödenstorf
03,03353030,Salzhausen,21376,10.169,53.226,salzhausen
03,03353034,Toppenstedt,21442,10.109,53.263,toppenstedt
03,03353037,Vierhöfen,21444,10.222,53.261,vierhöfen
03,03353042,Wulfsen,21445,10.144,53.3,wulfsen
03,03353006,Dohren,21255,9.702,53.305,dohren
03,03353015,Handeloh,21256,9.833,53.245,handeloh
03,03353018,Heidenau,21258,9.653,53.314,heidenau
03,03353021,Kakenstorf,21255,9.766,53.307,kakenstorf
03,03353022,Königsmoor,21255,9.64,53.232,königsmoor
03,03353027,Otter,21259,9.743,53.241,otter
03,03353035,Tostedt,21255,9.712,53.281,tostedt
03,03353038,Welle,21261,9.802,53.24,welle
03,03353041,Wistedt,21255,9.681,53.27,wistedt
03,03354005,Gartow,29471,11.461,53.025,gartow
03,03354007,Gorleben,29475,11.357,53.048,gorleben
03,03354010,Höhbeck,29478,11.431,53.063,höhbeck
03,03354020,Prezelle,29491,11.401,52.964,prezelle
03,03354021,Schnackenburg,29493,11.567,53.037,schnackenburg
03,03354003,Damnatz,29472,11.176,53.136,damnatz
03,03354004,Dannenberg (Elbe),29451,11.09,53.096,dannenberg (elbe)
03,03354006,Göhrde,29473,10.941,53.126,göhrde
03,03354008,Gusborn,29476,11.203,53.079,gusborn
03,03354009,Hitzacker (Elbe),29456,11.037,53.149,hitzacker (elbe)
03,03354011,Jameln,29479,11.075,53.04,jameln
03,03354012,Karwitz,29481,11.016,53.088,karwitz
03,03354014,Langendorf,29484,11.254,53.102,langendorf
03,03354019,Neu Darchau,29490,10.884,53.228,neu darchau
03,03354027,Zernien,29499,10.886,53.068,zernien
03,03354001,Bergen an der Dumme,29468,10.956,52.891,bergen an der dumme
03,03354002,Clenze,29459,10.954,52.937,clenze
03,03354013,Küsten,29482,11.065,52.977,küsten
03,03354015,Lemgow,29485,11.313,52.916,lemgow
03,03354016,Luckau (Wendland),29487,11.049,52.928,luckau (wendland)
03,03354017,Lübbow,29488,11.181,52.91,lübbow
03,03354018,Lüchow (Wendland),29439,11.162,52.968,lüchow (wendland)
03,03354022,Schnega,29465,10.892,52.89,schnega
03,03354023,Trebel,29494,11.318,52.995,trebel
03,03354024,Waddeweitz,29496,10.96,52.996,waddeweitz
03,03354025,Woltersdorf,29497,11.223,52.954,woltersdorf
03,03354026,Wustrow (Wendland),29462,11.119,52.924,wustrow (wendland)
03,03355001,Adendorf,21365,10.444,53.288,adendorf
03,03355009,Bleckede,21354,10.733,53.291,bleckede
03,03355022,Lüneburg,21335,10.409,53.249,lüneburg
03,03355049,Amt Neuhaus,19273,10.936,53.27,amt neuhaus
03,03355002,Amelinghausen,21385,10.218,53.13,amelinghausen
03,03355008,Betzendorf,21386,10.311,53.137,betzendorf
03,03355027,Oldendorf (Luhe),21385,10.214,53.157,oldendorf (luhe)
03,03355029,Rehlingen,21385,10.22,53.106,rehlingen
03,03355034,Soderstorf,21388,10.146,53.141,soderstorf
03,03355004,Bardowick,21357,10.388,53.292,bardowick
03,03355007,Barum,21357,10.409,53.351,barum
03,03355017,Handorf,21447,10.345,53.345,handorf
03,03355023,Mechtersen,21358,10.319,53.28,mechtersen
03,03355028,Radbruch,21449,10.284,53.311,radbruch
03,03355039,Vögelsen,21360,10.351,53.278,vögelsen
03,03355042,Wittorf,21357,10.38,53.332,wittorf
03,03355010,Boitze,21368,10.749,53.149,boitze
03,03355012,Dahlem,21368,10.748,53.203,dahlem
03,03355013,Dahlenburg,21368,10.737,53.188,dahlenburg
03,03355025,Nahrendorf,21369,10.814,53.174,nahrendorf
03,03355037,Tosterglope,21371,10.82,53.209,tosterglope
03,03355020,Kirchgellersen,21394,10.293,53.23,kirchgellersen
03,03355031,Reppenstedt,21391,10.354,53.248,reppenstedt
03,03355035,Südergellersen,21394,10.297,53.209,südergellersen
03,03355041,Westergellersen,21394,10.242,53.236,westergellersen
03,03355006,Barnstedt,21406,10.372,53.136,barnstedt
03,03355014,Deutsch Evern,21407,10.439,53.203,deutsch evern
03,03355016,Embsen,21409,10.345,53.176,embsen
03,03355024,Melbeck,21406,10.403,53.179,melbeck
03,03355005,Barendorf,21397,10.521,53.229,barendorf
03,03355026,Neetze,21398,10.624,53.266,neetze
03,03355030,Reinstorf,21400,10.573,53.234,reinstorf
03,03355036,Thomasburg,21401,10.658,53.232,thomasburg
03,03355038,Vastorf,21397,10.546,53.198,vastorf
03,03355040,Wendisch Evern,21403,10.471,53.216,wendisch evern
03,03355003,Artlenburg,21380,10.486,53.373,artlenburg
03,03355011,Brietlingen,21382,10.448,53.332,brietlingen
03,03355015,Echem,21379,10.531,53.338,echem
03,03355018,Hittbergen,21522,10.591,53.345,hittbergen
03,03355019,Hohnstorf (Elbe),21522,10.551,53.366,hohnstorf (elbe)
03,03355021,Lüdersburg,21379,10.574,53.321,lüdersburg
03,03355032,Rullstorf,21379,10.53,53.286,rullstorf
03,03355033,Scharnebeck,21379,10.508,53.293,scharnebeck
03,03356002,Grasberg,28879,8.984,53.181,grasberg
03,03356005,Lilienthal,28865,8.908,53.141,lilienthal
03,03356007,Osterholz-Scharmbeck,27711,8.783,53.23,osterholz-scharmbeck
03,03356008,Ritterhude,27721,8.757,53.183,ritterhude
03,03356009,Schwanewede,28790,8.594,53.225,schwanewede
03,03356011,Worpswede,27726,8.925,53.223,worpswede
03,03356001,Axstedt,27729,8.773,53.355,axstedt
03,03356003,Hambergen,27729,8.826,53.31,hambergen
03,03356004,Holste,27729,8.858,53.374,holste
03,03356006,Lübberstedt,27729,8.809,53.335,lübberstedt
03,03356010,Vollersode,27729,8.914,53.328,vollersode
03,03357008,Bremervörde,27432,9.146,53.485,bremervörde
03,03357016,Gnarrenburg,27442,9.003,53.382,gnarrenburg
03,03357039,Rotenburg (Wümme),27356,9.409,53.112,rotenburg (wümme)
03,03357041,Scheeßel,27383,9.483,53.169,scheeßel
03,03357051,Visselhövede,27374,9.58,52.986,visselhövede
03,03357006,Bothel,27386,9.504,53.074,bothel
03,03357009,Brockel,27386,9.521,53.095,brockel
03,03357024,Hemsbünde,27386,9.467,53.091,hemsbünde
03,03357025,Hemslingen,27386,9.598,53.088,hemslingen
03,03357031,Kirchwalsede,27386,9.394,53.021,kirchwalsede
03,03357054,Westerwalsede,27386,9.364,53.033,westerwalsede
03,03357015,Fintel,27389,9.668,53.172,fintel
03,03357023,Helvesiek,27389,9.491,53.216,helvesiek
03,03357033,Lauenbrück,27389,9.552,53.201,lauenbrück
03,03357046,Stemmen,27389,9.554,53.224,stemmen
03,03357049,Vahlde,27389,9.632,53.186,vahlde
03,03357002,Alfstedt,27432,9.067,53.549,alfstedt
03,03357004,Basdahl,27432,8.997,53.443,basdahl
03,03357012,Ebersdorf,27432,9.052,53.526,ebersdorf
03,03357027,Hipstedt,27432,8.969,53.483,hipstedt
03,03357035,Oerel,27432,9.056,53.482,oerel
03,03357003,Anderlingen,27446,9.302,53.372,anderlingen
03,03357011,Deinstedt,27446,9.226,53.409,deinstedt
03,03357014,Farven,27446,9.321,53.434,farven
03,03357036,Ostereistedt,27404,9.171,53.303,ostereistedt
03,03357038,Rhade,27404,9.115,53.328,rhade
03,03357040,Sandbostel,27446,9.13,53.409,sandbostel
03,03357042,Seedorf,27404,9.227,53.349,seedorf
03,03357043,Selsingen,27446,9.214,53.372,selsingen
03,03357017,Groß Meckelsen,27419,9.448,53.288,groß meckelsen
03,03357019,Hamersen,27419,9.482,53.253,hamersen
03,03357029,Kalbe,27419,9.55,53.295,kalbe
03,03357032,Klein Meckelsen,27419,9.451,53.304,klein meckelsen
03,03357034,Lengenbostel,27419,9.515,53.298,lengenbostel
03,03357044,Sittensen,27419,9.505,53.279,sittensen
03,03357048,Tiste,27419,9.533,53.286,tiste
03,03357050,Vierden,27419,9.506,53.329,vierden
03,03357056,Wohnste,27419,9.531,53.364,wohnste
03,03357001,Ahausen,27367,9.313,53.063,ahausen
03,03357005,Bötersen,27367,9.316,53.137,bötersen
03,03357020,Hassendorf,27367,9.268,53.112,hassendorf
03,03357022,Hellwege,27367,9.233,53.074,hellwege
03,03357028,Horstedt,27367,9.229,53.178,horstedt
03,03357037,Reeßum,27367,9.203,53.132,reeßum
03,03357045,Sottrum,27367,9.228,53.113,sottrum
03,03357007,Breddorf,27412,9.082,53.292,breddorf
03,03357010,Bülstedt,27412,9.161,53.213,bülstedt
03,03357026,Hepstedt,27412,9.083,53.259,hepstedt
03,03357030,Kirchtimke,27412,9.151,53.251,kirchtimke
03,03357047,Tarmstedt,27412,9.079,53.227,tarmstedt
03,03357052,Vorwerk,27412,9.161,53.187,vorwerk
03,03357053,Westertimke,27412,9.133,53.239,westertimke
03,03357055,Wilstedt,27412,9.093,53.195,wilstedt
03,03357013,Elsdorf,27404,9.353,53.243,elsdorf
03,03357018,Gyhum,27404,9.311,53.22,gyhum
03,03357021,Heeslingen,27404,9.335,53.315,heeslingen
03,03357057,Zeven,27404,9.279,53.296,zeven
03,03358002,Bispingen,29646,9.996,53.082,bispingen
03,03358004,Bomlitz,29699,9.661,52.903,bomlitz
03,03358008,Bad Fallingbostel,29683,9.694,52.866,bad fallingbostel
03,03358016,Munster,29633,10.093,52.987,munster
03,03358017,Neuenkirchen,29643,9.704,53.033,neuenkirchen
03,03358019,Schneverdingen,29640,9.787,53.118,schneverdingen
03,03358021,Soltau,29614,9.838,52.987,soltau
03,03358022,Walsrode,29664,9.595,52.86,walsrode
03,03358023,Wietzendorf,29649,9.976,52.917,wietzendorf
03,03358001,Ahlden (Aller),29693,9.553,52.76,ahlden (aller)
03,03358006,Eickeloh,29693,9.606,52.729,eickeloh
03,03358011,Grethem,29690,9.579,52.724,grethem
03,03358012,Hademstorf,29693,9.631,52.713,hademstorf
03,03358014,Hodenhagen,29693,9.584,52.762,hodenhagen
03,03358003,Böhme,29693,9.477,52.79,böhme
03,03358009,Frankenfeld,27336,9.429,52.769,frankenfeld
03,03358013,Häuslingen,27336,9.393,52.81,häuslingen
03,03358018,Rethem (Aller),27336,9.382,52.785,rethem (aller)
03,03358005,Buchholz (Aller),29690,9.68,52.677,buchholz (aller)
03,03358007,Essel,29690,9.642,52.692,essel
03,03358010,Gilten,29690,9.572,52.706,gilten
03,03358015,Lindwedel,29690,9.688,52.608,lindwedel
03,03358020,Schwarmstedt,29690,9.618,52.676,schwarmstedt
03,03358501,Osterheide,29664,9.722,52.775,osterheide
03,03359010,Buxtehude,21614,9.699,53.476,buxtehude
03,03359013,Drochtersen,21706,9.385,53.71,drochtersen
03,03359028,Jork,21635,9.681,53.533,jork
03,03359038,Stade,21682,9.476,53.601,stade
03,03359003,Apensen,21641,9.614,53.433,apensen
03,03359006,Beckdorf,21643,9.611,53.413,beckdorf
03,03359037,Sauensiek,21644,9.599,53.379,sauensiek
03,03359011,Deinste,21717,9.443,53.527,deinste
03,03359017,Fredenbeck,21717,9.405,53.531,fredenbeck
03,03359031,Kutenholz,27449,9.323,53.481,kutenholz
03,03359002,Ahlerstedt,21702,9.452,53.405,ahlerstedt
03,03359005,Bargstedt,21698,9.446,53.461,bargstedt
03,03359008,Brest,21698,9.383,53.451,brest
03,03359023,Harsefeld,21698,9.501,53.452,harsefeld
03,03359001,Agathenburg,21684,9.529,53.563,agathenburg
03,03359007,Bliedersdorf,21640,9.57,53.481,bliedersdorf
03,03359012,Dollern,21739,9.544,53.541,dollern
03,03359027,Horneburg,21640,9.584,53.507,horneburg
03,03359034,Nottensdorf,21640,9.602,53.486,nottensdorf
03,03359020,Grünendeich,21720,9.623,53.569,grünendeich
03,03359021,Guderhandviertel,21720,9.611,53.544,guderhandviertel
03,03359026,Hollern-Twielenfleth,21723,9.551,53.592,hollern-twielenfleth
03,03359032,Mittelnkirchen,21720,9.613,53.548,mittelnkirchen
03,03359033,Neuenkirchen,21640,9.607,53.527,neuenkirchen
03,03359039,Steinkirchen,21720,9.61,53.565,steinkirchen
03,03359004,Balje,21730,9.134,53.832,balje
03,03359018,Freiburg (Elbe),21729,9.288,53.824,freiburg (elbe)
03,03359030,Krummendeich,21732,9.208,53.83,krummendeich
03,03359035,Oederquart,21734,9.239,53.805,oederquart
03,03359040,Wischhafen,21737,9.32,53.775,wischhafen
03,03359009,Burweg,21709,9.264,53.625,burweg
03,03359014,Düdenbüttel,21709,9.348,53.591,düdenbüttel
03,03359015,Engelschoff,21710,9.324,53.663,engelschoff
03,03359016,Estorf,21727,9.204,53.576,estorf
03,03359019,Großenwörden,21712,9.259,53.679,großenwörden
03,03359022,Hammah,21714,9.366,53.618,hammah
03,03359024,Heinbockel,21726,9.327,53.574,heinbockel
03,03359025,Himmelpforten,21709,9.305,53.614,himmelpforten
03,03359029,Kranenburg,21726,9.207,53.605,kranenburg
03,03359036,Oldendorf,21726,9.252,53.591,oldendorf
03,03360004,Bienenbüttel,29553,10.492,53.142,bienenbüttel
03,03360025,Uelzen,29525,10.561,52.965,uelzen
03,03360015,Oetzen,29588,10.675,53.022,oetzen
03,03360016,Rätzlingen,29590,10.676,52.976,rätzlingen
03,03360018,Rosche,29571,10.752,52.987,rosche
03,03360022,Stoetze,29597,10.781,53.068,stoetze
03,03360024,Suhlendorf,29562,10.768,52.926,suhlendorf
03,03360007,Eimke,29578,10.314,52.967,eimke
03,03360009,Gerdau,29581,10.419,52.968,gerdau
03,03360023,Suderburg,29556,10.453,52.895,suderburg
03,03360001,Altenmedingen,29575,10.603,53.131,altenmedingen
03,03360002,Bad Bevensen,29549,10.575,53.08,bad bevensen
03,03360003,Barum,29576,10.517,53.052,barum
03,03360006,Ebstorf,29574,10.413,53.029,ebstorf
03,03360008,Emmendorf,29579,10.568,53.024,emmendorf
03,03360010,Hanstedt,29582,10.376,53.046,hanstedt
03,03360011,Himbergen,29584,10.728,53.093,himbergen
03,03360012,Jelmstorf,29585,10.523,53.101,jelmstorf
03,03360014,Natendorf,29587,10.471,53.08,natendorf
03,03360017,Römstedt,29591,10.651,53.096,römstedt
03,03360019,Schwienau,29593,10.406,52.994,schwienau
03,03360026,Weste,29599,10.706,53.06,weste
03,03360029,Wriedel,29565,10.299,53.032,wriedel
03,03360005,Bad Bodenteich,29389,10.678,52.834,bad bodenteich
03,03360013,Lüder,29394,10.666,52.809,lüder
03,03360020,Soltendieck,29594,10.759,52.875,soltendieck
03,03360030,Wrestedt,29559,10.572,52.902,wrestedt
03,03361001,Achim,28832,9.033,53.013,achim
03,03361003,Dörverden,27313,9.228,52.847,dörverden
03,03361005,Kirchlinteln,27308,9.315,52.939,kirchlinteln
03,03361006,Langwedel,27299,9.171,52.979,langwedel
03,03361008,Ottersberg,28870,9.143,53.108,ottersberg
03,03361009,Oyten,28876,9.018,53.06,oyten
03,03361012,Verden (Aller),27283,9.231,52.923,verden (aller)
03,03361002,Blender,27337,9.134,52.927,blender
03,03361004,Emtinghausen,27321,8.966,52.932,emtinghausen
03,03361010,Riede,27339,8.941,52.967,riede
03,03361013,Thedinghausen,27321,9.021,52.962,thedinghausen
03,03401000,Delmenhorst,27749,8.63,53.05,delmenhorst
03,03402000,Emden,26721,7.206,53.371,emden
03,03403000,Oldenburg (Oldb),26122,8.213,53.14,oldenburg (oldb)
03,03404000,Osnabrück,49074,8.042,52.277,osnabrück
03,03405000,Wilhelmshaven,26382,8.111,53.52,wilhelmshaven
03,03451001,Apen,26689,7.806,53.218,apen
03,03451002,Bad Zwischenahn,26160,8.008,53.181,bad zwischenahn
03,03451004,Edewecht,26188,7.981,53.125,edewecht
03,03451005,Rastede,26180,8.198,53.247,rastede
03,03451007,Westerstede,26655,7.923,53.257,westerstede
03,03451008,Wiefelstede,26215,8.117,53.255,wiefelstede
03,03452001,Aurich,26603,7.482,53.47,aurich
03,03452002,Baltrum,26579,7.369,53.728,baltrum
03,03452006,Großefehn,26629,7.585,53.409,großefehn
03,03452007,Großheide,26532,7.344,53.592,großheide
03,03452011,Hinte,26759,7.194,53.415,hinte
03,03452012,Ihlow,26632,7.42,53.406,ihlow
03,03452013,Juist,26571,6.996,53.678,juist
03,03452014,Krummhörn,26736,7.08,53.446,krummhörn
03,03452019,Norden,26506,7.202,53.595,norden
03,03452020,Norderney,26548,7.145,53.707,norderney
03,03452023,Südbrookmerland,26624,7.329,53.467,südbrookmerland
03,03452025,Wiesmoor,26639,7.733,53.413,wiesmoor
03,03452027,Dornum,26553,7.429,53.648,dornum
03,03452015,Leezdorf,26529,7.295,53.548,leezdorf
03,03452017,Marienhafe,26529,7.273,53.523,marienhafe
03,03452021,Osteel,26529,7.253,53.541,osteel
03,03452022,Rechtsupweg,26529,7.327,53.529,rechtsupweg
03,03452024,Upgant-Schott,26529,7.269,53.512,upgant-schott
03,03452026,Wirdum,26529,7.207,53.479,wirdum
03,03452003,Berumbur,26524,7.324,53.588,berumbur
03,03452008,Hage,26524,7.284,53.603,hage
03,03452009,Hagermarsch,26524,7.288,53.651,hagermarsch
03,03452010,Halbemond,26524,7.29,53.568,halbemond
03,03452016,Lütetsburg,26524,7.247,53.601,lütetsburg
03,03453001,Barßel,26676,7.745,53.169,barßel
03,03453002,Bösel,26219,7.954,53.006,bösel
03,03453003,Cappeln (Oldenburg),49692,8.114,52.811,cappeln (oldenburg)
03,03453004,Cloppenburg,49661,8.043,52.848,cloppenburg
03,03453005,Emstek,49685,8.155,52.834,emstek
03,03453006,Essen (Oldenburg),49632,7.939,52.72,essen (oldenburg)
03,03453007,Friesoythe,26169,7.859,53.021,friesoythe
03,03453008,Garrel,49681,8.024,52.955,garrel
03,03453009,Lastrup,49688,7.865,52.795,lastrup
03,03453010,Lindern (Oldenburg),49699,7.78,52.845,lindern (oldenburg)
03,03453011,Löningen,49624,7.757,52.735,löningen
03,03453012,Molbergen,49696,7.922,52.859,molbergen
03,03453013,Saterland,26683,7.705,53.082,saterland
03,03454010,Emsbüren,48488,7.293,52.393,emsbüren
03,03454014,Geeste,49744,7.267,52.601,geeste
03,03454018,Haren (Ems),49733,7.242,52.79,haren (ems)
03,03454019,Haselünne,49740,7.487,52.674,haselünne
03,03454032,Lingen (Ems),49808,7.317,52.522,lingen (ems)
03,03454035,Meppen,49716,7.292,52.691,meppen
03,03454041,Papenburg,26871,7.393,53.078,papenburg
03,03454044,Rhede (Ems),26899,7.273,53.059,rhede (ems)
03,03454045,Salzbergen,48499,7.348,52.323,salzbergen
03,03454054,Twist,49767,7.061,52.635,twist
03,03454007,Dersum,26906,7.276,52.96,dersum
03,03454008,Dörpen,26892,7.322,52.966,dörpen
03,03454020,Heede,26892,7.299,52.993,heede
03,03454025,Kluse,26892,7.343,52.933,kluse
03,03454030,Lehe,26892,7.343,53.003,lehe
03,03454037,Neubörger,26909,7.45,52.955,neubörger
03,03454038,Neulehe,26909,7.414,53.008,neulehe
03,03454056,Walchum,26907,7.282,52.931,walchum
03,03454060,Wippingen,26892,7.407,52.925,wippingen
03,03454001,Andervenne,49832,7.571,52.509,andervenne
03,03454003,Beesten,49832,7.498,52.436,beesten
03,03454012,Freren,49832,7.544,52.487,freren
03,03454036,Messingen,49832,7.46,52.467,messingen
03,03454053,Thuine,49832,7.49,52.499,thuine
03,03454009,Dohren,49770,7.584,52.645,dohren
03,03454021,Herzlake,49770,7.607,52.685,herzlake
03,03454026,Lähden,49774,7.567,52.744,lähden
03,03454013,Fresenburg,49762,7.301,52.885,fresenburg
03,03454029,Lathen,49762,7.314,52.862,lathen
03,03454039,Niederlangen,49779,7.285,52.857,niederlangen
03,03454040,Oberlangen,49779,7.275,52.849,oberlangen
03,03454043,Renkenberge,49762,7.378,52.908,renkenberge
03,03454052,Sustrum,49762,7.284,52.911,sustrum
03,03454002,Bawinkel,49844,7.411,52.6,bawinkel
03,03454015,Gersten,49838,7.495,52.572,gersten
03,03454017,Handrup,49838,7.571,52.566,handrup
03,03454028,Langen,49838,7.469,52.541,langen
03,03454031,Lengerich,49838,7.532,52.554,lengerich
03,03454059,Wettrup,49838,7.596,52.589,wettrup
03,03454004,Bockhorst,26897,7.574,53.035,bockhorst
03,03454006,Breddenberg,26897,7.608,52.954,breddenberg
03,03454011,Esterwegen,26897,7.633,52.993,esterwegen
03,03454022,Hilkenbrook,26897,7.708,52.984,hilkenbrook
03,03454051,Surwold,26903,7.519,52.983,surwold
03,03454005,Börger,26904,7.534,52.912,börger
03,03454016,Groß Berßen,49777,7.495,52.775,groß berßen
03,03454023,Hüven,49751,7.552,52.786,hüven
03,03454024,Klein Berßen,49777,7.464,52.769,klein berßen
03,03454047,Sögel,49751,7.524,52.841,sögel
03,03454048,Spahnharrenstätte,49751,7.602,52.87,spahnharrenstätte
03,03454050,Stavern,49777,7.432,52.788,stavern
03,03454058,Werpeloh,49751,7.507,52.876,werpeloh
03,03454034,Lünne,48480,7.424,52.431,lünne
03,03454046,Schapen,48480,7.559,52.402,schapen
03,03454049,Spelle,48480,7.469,52.367,spelle
03,03454027,Lahn,49757,7.616,52.816,lahn
03,03454033,Lorup,26901,7.645,52.924,lorup
